{"frame_id": 0, "timestamp": 1767514573.8669078, "image": "frames/frame_000000.jpg", "lat": 0.0, "lon": 0.0, "alt_agl": 0.0, "heading_deg": 0.0, "pitch": 0.0, "roll": 0.0}
{"frame_id": 1, "timestamp": 1767514574.7861264, "image": "frames/frame_000001.jpg", "lat": 26.3905615, "lon": 80.3885473, "alt_agl": -0.365, "heading_deg": 126.0, "pitch": -2.8271585179974363, "roll": 0.8967675526427085}
{"frame_id": 2, "timestamp": 1767514575.7810774, "image": "frames/frame_000002.jpg", "lat": 26.3905615, "lon": 80.3885476, "alt_agl": -0.379, "heading_deg": 125.99, "pitch": -2.8467564651603183, "roll": 0.9130733486256446}
{"frame_id": 3, "timestamp": 1767514576.8310866, "image": "frames/frame_000003.jpg", "lat": 26.3905614, "lon": 80.388548, "alt_agl": -0.343, "heading_deg": 125.99, "pitch": -2.8365075528673027, "roll": 0.9229613281097074}
{"frame_id": 4, "timestamp": 1767514577.7824342, "image": "frames/frame_000004.jpg", "lat": 26.3905615, "lon": 80.3885483, "alt_agl": -0.153, "heading_deg": 125.98, "pitch": -2.82209777470928, "roll": 0.9086280694147298}
{"frame_id": 5, "timestamp": 1767514578.7812479, "image": "frames/frame_000005.jpg", "lat": 26.3905615, "lon": 80.3885486, "alt_agl": -0.172, "heading_deg": 125.97, "pitch": -2.8370247262535195, "roll": 0.9079238128782781}
{"frame_id": 6, "timestamp": 1767514579.781604, "image": "frames/frame_000006.jpg", "lat": 26.3905615, "lon": 80.388549, "alt_agl": -0.291, "heading_deg": 125.97, "pitch": -2.8346580657061105, "roll": 0.927461355555688}
{"frame_id": 7, "timestamp": 1767514580.7813563, "image": "frames/frame_000007.jpg", "lat": 26.3905615, "lon": 80.388549, "alt_agl": -0.31, "heading_deg": 125.96, "pitch": -2.8179774630924697, "roll": 0.9344437298781451}
{"frame_id": 8, "timestamp": 1767514581.7828314, "image": "frames/frame_000008.jpg", "lat": 26.3905617, "lon": 80.3885491, "alt_agl": -0.323, "heading_deg": 125.95, "pitch": -2.821912292384632, "roll": 0.9245028164280147}
{"frame_id": 9, "timestamp": 1767514582.8201792, "image": "frames/frame_000009.jpg", "lat": 26.3905617, "lon": 80.3885492, "alt_agl": -0.298, "heading_deg": 125.94, "pitch": -2.8273166795654046, "roll": 0.938522633473112}
{"frame_id": 10, "timestamp": 1767514583.7841477, "image": "frames/frame_000010.jpg", "lat": 26.3905617, "lon": 80.3885494, "alt_agl": -0.267, "heading_deg": 125.92, "pitch": -2.8472510135449096, "roll": 0.9469932419826915}
{"frame_id": 11, "timestamp": 1767514584.7825859, "image": "frames/frame_000011.jpg", "lat": 26.3905616, "lon": 80.3885496, "alt_agl": -0.168, "heading_deg": 125.91, "pitch": -2.859438205458328, "roll": 0.9504705553221684}
{"frame_id": 12, "timestamp": 1767514585.779706, "image": "frames/frame_000012.jpg", "lat": 26.3905614, "lon": 80.38855, "alt_agl": -0.096, "heading_deg": 125.9, "pitch": -2.8865707050493805, "roll": 0.9613399476125974}
{"frame_id": 13, "timestamp": 1767514586.770651, "image": "frames/frame_000013.jpg", "lat": 26.3905614, "lon": 80.3885502, "alt_agl": 0.049, "heading_deg": 125.9, "pitch": -2.8628381455611134, "roll": 0.9444373638509316}
{"frame_id": 14, "timestamp": 1767514587.764718, "image": "frames/frame_000014.jpg", "lat": 26.3905615, "lon": 80.3885502, "alt_agl": -0.153, "heading_deg": 125.89, "pitch": -2.852037482049208, "roll": 0.934958448665129}
{"frame_id": 15, "timestamp": 1767514588.7831824, "image": "frames/frame_000015.jpg", "lat": 26.3905616, "lon": 80.3885503, "alt_agl": -0.087, "heading_deg": 125.9, "pitch": -2.851984761526552, "roll": 0.9494368488799694}
{"frame_id": 16, "timestamp": 1767514589.7754955, "image": "frames/frame_000016.jpg", "lat": 26.3905616, "lon": 80.3885506, "alt_agl": -0.055, "heading_deg": 125.89, "pitch": -2.856487350293471, "roll": 0.950313034084435}
{"frame_id": 17, "timestamp": 1767514590.7650151, "image": "frames/frame_000017.jpg", "lat": 26.3905615, "lon": 80.3885508, "alt_agl": -0.28, "heading_deg": 125.87, "pitch": -2.8704474031833307, "roll": 0.9583252728676831}
{"frame_id": 18, "timestamp": 1767514591.7668433, "image": "frames/frame_000018.jpg", "lat": 26.3905614, "lon": 80.3885511, "alt_agl": -0.506, "heading_deg": 125.86, "pitch": -2.861852463886516, "roll": 0.9559955380304741}
{"frame_id": 19, "timestamp": 1767514592.7786655, "image": "frames/frame_000019.jpg", "lat": 26.3905613, "lon": 80.3885514, "alt_agl": -0.463, "heading_deg": 125.87, "pitch": -2.8606149189862746, "roll": 0.9449901822868795}
{"frame_id": 20, "timestamp": 1767514593.773178, "image": "frames/frame_000020.jpg", "lat": 26.3905613, "lon": 80.3885515, "alt_agl": -0.478, "heading_deg": 125.85, "pitch": -2.8599724543174703, "roll": 0.9389778015482699}
{"frame_id": 21, "timestamp": 1767514594.779704, "image": "frames/frame_000021.jpg", "lat": 26.3905611, "lon": 80.3885518, "alt_agl": -0.371, "heading_deg": 125.84, "pitch": -2.8497034783437676, "roll": 0.945697533752799}
{"frame_id": 22, "timestamp": 1767514595.7656052, "image": "frames/frame_000022.jpg", "lat": 26.3905608, "lon": 80.388552, "alt_agl": -0.338, "heading_deg": 125.83, "pitch": -2.8568190413550396, "roll": 0.9517059657882945}
{"frame_id": 23, "timestamp": 1767514596.7757862, "image": "frames/frame_000023.jpg", "lat": 26.3905609, "lon": 80.3885523, "alt_agl": -0.368, "heading_deg": 125.82, "pitch": -2.845154572356539, "roll": 0.9250535004298469}
{"frame_id": 24, "timestamp": 1767514597.780523, "image": "frames/frame_000024.jpg", "lat": 26.3905611, "lon": 80.3885523, "alt_agl": -0.469, "heading_deg": 125.83, "pitch": -2.8391743148513697, "roll": 0.9199529499454341}
{"frame_id": 25, "timestamp": 1767514598.7692544, "image": "frames/frame_000025.jpg", "lat": 26.3905613, "lon": 80.3885525, "alt_agl": -0.602, "heading_deg": 125.83, "pitch": -2.8413849482649267, "roll": 0.9261597776319774}
{"frame_id": 26, "timestamp": 1767514599.7816246, "image": "frames/frame_000026.jpg", "lat": 26.3905613, "lon": 80.3885526, "alt_agl": -0.643, "heading_deg": 125.82, "pitch": -2.8302024344897347, "roll": 0.9396419307233479}
{"frame_id": 27, "timestamp": 1767514601.3798268, "image": "frames/frame_000027.jpg", "lat": 26.3905614, "lon": 80.3885526, "alt_agl": -0.583, "heading_deg": 125.82, "pitch": -2.822521246437821, "roll": 0.9423452982524978}
{"frame_id": 28, "timestamp": 1767514602.340643, "image": "frames/frame_000028.jpg", "lat": 26.3905612, "lon": 80.3885524, "alt_agl": -0.294, "heading_deg": 125.8, "pitch": -2.817297645826642, "roll": 0.969330948776395}
{"frame_id": 29, "timestamp": 1767514603.341885, "image": "frames/frame_000029.jpg", "lat": 26.390561, "lon": 80.3885525, "alt_agl": -0.311, "heading_deg": 125.79, "pitch": -2.8346619076875186, "roll": 0.9683675719383059}
{"frame_id": 30, "timestamp": 1767514604.3417008, "image": "frames/frame_000030.jpg", "lat": 26.3905612, "lon": 80.3885525, "alt_agl": -0.48, "heading_deg": 125.79, "pitch": -2.8170039476923314, "roll": 0.9468097873704532}
{"frame_id": 31, "timestamp": 1767514605.342116, "image": "frames/frame_000031.jpg", "lat": 26.3905617, "lon": 80.3885527, "alt_agl": -0.383, "heading_deg": 125.77, "pitch": -2.815081249440973, "roll": 0.9024649976275569}
{"frame_id": 32, "timestamp": 1767514606.343697, "image": "frames/frame_000032.jpg", "lat": 26.3905619, "lon": 80.3885529, "alt_agl": -0.2, "heading_deg": 125.76, "pitch": -2.8302502458139247, "roll": 0.9335233618874859}
{"frame_id": 33, "timestamp": 1767514607.3745258, "image": "frames/frame_000033.jpg", "lat": 26.3905623, "lon": 80.3885528, "alt_agl": -0.294, "heading_deg": 125.76, "pitch": -2.810526580481632, "roll": 0.9302626936107452}
{"frame_id": 34, "timestamp": 1767514608.3427927, "image": "frames/frame_000034.jpg", "lat": 26.3905627, "lon": 80.3885527, "alt_agl": -0.255, "heading_deg": 125.75, "pitch": -2.812069776347232, "roll": 0.9203904022174323}
{"frame_id": 35, "timestamp": 1767514609.3373284, "image": "frames/frame_000035.jpg", "lat": 26.3905628, "lon": 80.3885528, "alt_agl": -0.201, "heading_deg": 125.74, "pitch": -2.8255139365113444, "roll": 0.9248940582014095}
{"frame_id": 36, "timestamp": 1767514610.3425977, "image": "frames/frame_000036.jpg", "lat": 26.3905629, "lon": 80.3885528, "alt_agl": -0.318, "heading_deg": 125.74, "pitch": -2.844512321131146, "roll": 0.9425386779833738}
{"frame_id": 37, "timestamp": 1767514611.345146, "image": "frames/frame_000037.jpg", "lat": 26.3905633, "lon": 80.3885528, "alt_agl": -0.592, "heading_deg": 125.73, "pitch": -2.8373226932560613, "roll": 0.9446006480607771}
{"frame_id": 38, "timestamp": 1767514612.3434753, "image": "frames/frame_000038.jpg", "lat": 26.3905635, "lon": 80.3885527, "alt_agl": -0.561, "heading_deg": 125.74, "pitch": -2.825068053224589, "roll": 0.9512235836781624}
{"frame_id": 39, "timestamp": 1767514613.3785841, "image": "frames/frame_000039.jpg", "lat": 26.3905639, "lon": 80.3885526, "alt_agl": -0.702, "heading_deg": 125.73, "pitch": -2.8161762141422906, "roll": 0.944455719984326}
{"frame_id": 40, "timestamp": 1767514614.3437164, "image": "frames/frame_000040.jpg", "lat": 26.3905641, "lon": 80.3885525, "alt_agl": -0.587, "heading_deg": 125.74, "pitch": -2.8100341665311563, "roll": 0.9361800920312092}
{"frame_id": 41, "timestamp": 1767514615.3443537, "image": "frames/frame_000041.jpg", "lat": 26.3905645, "lon": 80.3885525, "alt_agl": -0.509, "heading_deg": 125.73, "pitch": -2.812658666719734, "roll": 0.9255538117865504}
{"frame_id": 42, "timestamp": 1767514616.3447902, "image": "frames/frame_000042.jpg", "lat": 26.3905645, "lon": 80.3885525, "alt_agl": -0.297, "heading_deg": 125.73, "pitch": -2.8374876850132, "roll": 0.9423781685378785}
{"frame_id": 43, "timestamp": 1767514617.3383942, "image": "frames/frame_000043.jpg", "lat": 26.390565, "lon": 80.3885525, "alt_agl": -0.263, "heading_deg": 125.72, "pitch": -2.812063799931708, "roll": 0.916201788708922}
{"frame_id": 44, "timestamp": 1767514618.343169, "image": "frames/frame_000044.jpg", "lat": 26.3905654, "lon": 80.3885524, "alt_agl": -0.238, "heading_deg": 125.72, "pitch": -2.8202950316552196, "roll": 0.919873442274627}
{"frame_id": 45, "timestamp": 1767514619.3827, "image": "frames/frame_000045.jpg", "lat": 26.3905656, "lon": 80.3885524, "alt_agl": -0.05, "heading_deg": 125.7, "pitch": -2.824155582640158, "roll": 0.9326774856474621}
{"frame_id": 46, "timestamp": 1767514620.3435369, "image": "frames/frame_000046.jpg", "lat": 26.3905658, "lon": 80.3885524, "alt_agl": -0.158, "heading_deg": 125.71, "pitch": -2.829181321208818, "roll": 0.9392390562840229}
{"frame_id": 47, "timestamp": 1767514621.3452404, "image": "frames/frame_000047.jpg", "lat": 26.3905659, "lon": 80.3885522, "alt_agl": -0.131, "heading_deg": 125.7, "pitch": -2.8356781117699694, "roll": 0.9454084246518369}
{"frame_id": 48, "timestamp": 1767514622.3435802, "image": "frames/frame_000048.jpg", "lat": 26.3905663, "lon": 80.3885521, "alt_agl": -0.166, "heading_deg": 125.69, "pitch": -2.8321121126929882, "roll": 0.9220539801671536}
{"frame_id": 49, "timestamp": 1767514623.3421316, "image": "frames/frame_000049.jpg", "lat": 26.3905665, "lon": 80.388552, "alt_agl": -0.124, "heading_deg": 125.7, "pitch": -2.837836664991105, "roll": 0.9184489209458562}
{"frame_id": 50, "timestamp": 1767514624.3456047, "image": "frames/frame_000050.jpg", "lat": 26.3905667, "lon": 80.388552, "alt_agl": -0.161, "heading_deg": 125.68, "pitch": -2.8428382844542583, "roll": 0.9245936365996347}
{"frame_id": 51, "timestamp": 1767514625.3802304, "image": "frames/frame_000051.jpg", "lat": 26.3905668, "lon": 80.388552, "alt_agl": -0.328, "heading_deg": 125.68, "pitch": -2.849878075054426, "roll": 0.9402289001051459}
{"frame_id": 52, "timestamp": 1767514626.34231, "image": "frames/frame_000052.jpg", "lat": 26.3905668, "lon": 80.388552, "alt_agl": -0.294, "heading_deg": 125.68, "pitch": -2.8609927138247406, "roll": 0.9529588786141687}
{"frame_id": 53, "timestamp": 1767514627.3429852, "image": "frames/frame_000053.jpg", "lat": 26.3905673, "lon": 80.3885518, "alt_agl": -0.385, "heading_deg": 125.68, "pitch": -2.825318635789764, "roll": 0.9287350791141896}
{"frame_id": 54, "timestamp": 1767514628.3441403, "image": "frames/frame_000054.jpg", "lat": 26.3905678, "lon": 80.3885516, "alt_agl": -0.519, "heading_deg": 125.66, "pitch": -2.8280863565075003, "roll": 0.9199065260034192}
{"frame_id": 55, "timestamp": 1767514629.3465335, "image": "frames/frame_000055.jpg", "lat": 26.390568, "lon": 80.3885516, "alt_agl": -0.51, "heading_deg": 125.64, "pitch": -2.836622598866135, "roll": 0.916213528096558}
{"frame_id": 56, "timestamp": 1767514630.3443043, "image": "frames/frame_000056.jpg", "lat": 26.3905683, "lon": 80.3885515, "alt_agl": -0.501, "heading_deg": 125.65, "pitch": -2.8342102614286513, "roll": 0.9186305612890961}
{"frame_id": 57, "timestamp": 1767514631.3951066, "image": "frames/frame_000057.jpg", "lat": 26.3905688, "lon": 80.3885515, "alt_agl": 0.001, "heading_deg": 125.63, "pitch": -2.826073585136462, "roll": 0.9094729851594016}
{"frame_id": 58, "timestamp": 1767514632.3452518, "image": "frames/frame_000058.jpg", "lat": 26.3905692, "lon": 80.3885514, "alt_agl": 0.036, "heading_deg": 125.63, "pitch": -2.818151632916305, "roll": 0.9128035561534291}
{"frame_id": 59, "timestamp": 1767514633.346716, "image": "frames/frame_000059.jpg", "lat": 26.3905695, "lon": 80.3885511, "alt_agl": 0.103, "heading_deg": 125.62, "pitch": -2.8118736218520057, "roll": 0.9201338432367336}
{"frame_id": 60, "timestamp": 1767514634.3473763, "image": "frames/frame_000060.jpg", "lat": 26.39057, "lon": 80.3885508, "alt_agl": 0.11, "heading_deg": 125.61, "pitch": -2.8082371864492086, "roll": 0.9221022183781667}
{"frame_id": 61, "timestamp": 1767514635.3454015, "image": "frames/frame_000061.jpg", "lat": 26.3905706, "lon": 80.3885506, "alt_agl": 0.118, "heading_deg": 125.6, "pitch": -2.8038095163197476, "roll": 0.9215510007678056}
{"frame_id": 62, "timestamp": 1767514636.345171, "image": "frames/frame_000062.jpg", "lat": 26.390571, "lon": 80.3885505, "alt_agl": 0.322, "heading_deg": 125.59, "pitch": -2.7953518211365678, "roll": 0.9205671333622064}
{"frame_id": 63, "timestamp": 1767514637.3765078, "image": "frames/frame_000063.jpg", "lat": 26.3905714, "lon": 80.3885497, "alt_agl": 0.165, "heading_deg": 125.59, "pitch": -2.7879276189521756, "roll": 0.9288088238128845}
{"frame_id": 64, "timestamp": 1767514638.3454795, "image": "frames/frame_000064.jpg", "lat": 26.3905718, "lon": 80.3885487, "alt_agl": 0.145, "heading_deg": 125.58, "pitch": -2.792851971900343, "roll": 0.9233480875714594}
{"frame_id": 65, "timestamp": 1767514639.3481443, "image": "frames/frame_000065.jpg", "lat": 26.3905721, "lon": 80.388548, "alt_agl": 0.179, "heading_deg": 125.57, "pitch": -2.811790378921496, "roll": 0.9137572213162921}
{"frame_id": 66, "timestamp": 1767514640.346122, "image": "frames/frame_000066.jpg", "lat": 26.3905719, "lon": 80.3885475, "alt_agl": 0.177, "heading_deg": 125.57, "pitch": -2.8316894947380935, "roll": 0.923136351707189}
{"frame_id": 67, "timestamp": 1767514641.3456688, "image": "frames/frame_000067.jpg", "lat": 26.3905704, "lon": 80.3885474, "alt_agl": 0.23, "heading_deg": 125.57, "pitch": -2.8547428772907675, "roll": 0.902841938692377}
{"frame_id": 68, "timestamp": 1767514642.3467333, "image": "frames/frame_000068.jpg", "lat": 26.3905682, "lon": 80.3885475, "alt_agl": 0.238, "heading_deg": 125.57, "pitch": -2.857196836193506, "roll": 0.8796398394426966}
{"frame_id": 69, "timestamp": 1767514643.373538, "image": "frames/frame_000069.jpg", "lat": 26.3905643, "lon": 80.3885478, "alt_agl": 0.304, "heading_deg": 125.57, "pitch": -2.854873504658644, "roll": 0.8643865862830301}
{"frame_id": 70, "timestamp": 1767514644.346653, "image": "frames/frame_000070.jpg", "lat": 26.3905604, "lon": 80.3885484, "alt_agl": 0.359, "heading_deg": 125.56, "pitch": -2.8258541653093756, "roll": 0.80300634425477}
{"frame_id": 71, "timestamp": 1767514645.3455472, "image": "frames/frame_000071.jpg", "lat": 26.3905574, "lon": 80.3885491, "alt_agl": 0.272, "heading_deg": 125.55, "pitch": -2.766739304929738, "roll": 0.7600274856241706}
{"frame_id": 72, "timestamp": 1767514646.345993, "image": "frames/frame_000072.jpg", "lat": 26.3905544, "lon": 80.38855, "alt_agl": 0.202, "heading_deg": 125.55, "pitch": -2.6968412833979434, "roll": 0.6630348507068756}
{"frame_id": 73, "timestamp": 1767514647.3461041, "image": "frames/frame_000073.jpg", "lat": 26.3905528, "lon": 80.3885503, "alt_agl": 0.074, "heading_deg": 125.55, "pitch": -2.6045534748800234, "roll": 0.6246220802581355}
{"frame_id": 74, "timestamp": 1767514648.3457935, "image": "frames/frame_000074.jpg", "lat": 26.3905501, "lon": 80.3885501, "alt_agl": -0.036, "heading_deg": 125.54, "pitch": -2.603990197716909, "roll": 0.7057908744158033}
{"frame_id": 75, "timestamp": 1767514649.3875732, "image": "frames/frame_000075.jpg", "lat": 26.3905486, "lon": 80.3885501, "alt_agl": -0.06, "heading_deg": 125.54, "pitch": -2.576752470523956, "roll": 0.6735922954513055}
{"frame_id": 76, "timestamp": 1767514650.3469977, "image": "frames/frame_000076.jpg", "lat": 26.3905478, "lon": 80.38855, "alt_agl": -0.179, "heading_deg": 125.53, "pitch": -2.5677184781295566, "roll": 0.6693225734464012}
{"frame_id": 77, "timestamp": 1767514651.3470187, "image": "frames/frame_000077.jpg", "lat": 26.3905472, "lon": 80.3885499, "alt_agl": -0.246, "heading_deg": 125.52, "pitch": -2.5671490111075066, "roll": 0.6510471216615628}
{"frame_id": 78, "timestamp": 1767514652.346248, "image": "frames/frame_000078.jpg", "lat": 26.3905464, "lon": 80.3885497, "alt_agl": -0.254, "heading_deg": 125.51, "pitch": -2.5961324919636324, "roll": 0.6590577596192241}
{"frame_id": 79, "timestamp": 1767514653.348625, "image": "frames/frame_000079.jpg", "lat": 26.3905458, "lon": 80.3885496, "alt_agl": -0.178, "heading_deg": 125.53, "pitch": -2.60833462491586, "roll": 0.6567397641696511}
{"frame_id": 80, "timestamp": 1767514654.343113, "image": "frames/frame_000080.jpg", "lat": 26.3905454, "lon": 80.3885493, "alt_agl": -0.172, "heading_deg": 125.51, "pitch": -2.6120461923995277, "roll": 0.6777751459877036}
{"frame_id": 81, "timestamp": 1767514655.395767, "image": "frames/frame_000081.jpg", "lat": 26.3905446, "lon": 80.388549, "alt_agl": -0.123, "heading_deg": 125.51, "pitch": -2.6413662735156884, "roll": 0.6862259042600076}
{"frame_id": 82, "timestamp": 1767514656.346612, "image": "frames/frame_000082.jpg", "lat": 26.3905411, "lon": 80.3885481, "alt_agl": -0.052, "heading_deg": 125.49, "pitch": -2.692165805467658, "roll": 0.720109939123912}
{"frame_id": 83, "timestamp": 1767514657.34681, "image": "frames/frame_000083.jpg", "lat": 26.3905382, "lon": 80.3885472, "alt_agl": -0.026, "heading_deg": 125.49, "pitch": -2.6904921956775936, "roll": 0.7358954667911635}
{"frame_id": 84, "timestamp": 1767514658.3485398, "image": "frames/frame_000084.jpg", "lat": 26.3905358, "lon": 80.3885466, "alt_agl": -0.107, "heading_deg": 125.49, "pitch": -2.6931284352538065, "roll": 0.7298993077518328}
{"frame_id": 85, "timestamp": 1767514659.3470464, "image": "frames/frame_000085.jpg", "lat": 26.3905338, "lon": 80.3885459, "alt_agl": -0.171, "heading_deg": 125.49, "pitch": -2.675331523597692, "roll": 0.7059781710094498}
{"frame_id": 86, "timestamp": 1767514660.3471675, "image": "frames/frame_000086.jpg", "lat": 26.3905328, "lon": 80.3885456, "alt_agl": -0.058, "heading_deg": 125.49, "pitch": -2.667798465273403, "roll": 0.6559260111630675}
{"frame_id": 87, "timestamp": 1767514661.380345, "image": "frames/frame_000087.jpg", "lat": 26.3905321, "lon": 80.3885457, "alt_agl": -0.031, "heading_deg": 125.5, "pitch": -2.663236966124892, "roll": 0.60039059679534}
{"frame_id": 88, "timestamp": 1767514662.343831, "image": "frames/frame_000088.jpg", "lat": 26.390532, "lon": 80.3885459, "alt_agl": -0.071, "heading_deg": 125.5, "pitch": -2.6765014069364685, "roll": 0.6085982430218739}
{"frame_id": 89, "timestamp": 1767514663.3501573, "image": "frames/frame_000089.jpg", "lat": 26.390532, "lon": 80.3885462, "alt_agl": -0.119, "heading_deg": 125.51, "pitch": -2.6874504136194104, "roll": 0.6244095973419246}
{"frame_id": 90, "timestamp": 1767514664.347995, "image": "frames/frame_000090.jpg", "lat": 26.390532, "lon": 80.3885468, "alt_agl": -0.261, "heading_deg": 125.52, "pitch": -2.670260535025781, "roll": 0.7201227457286058}
{"frame_id": 91, "timestamp": 1767514665.3481786, "image": "frames/frame_000091.jpg", "lat": 26.390532, "lon": 80.3885474, "alt_agl": -0.299, "heading_deg": 125.48, "pitch": -2.7211200445764, "roll": 0.6960466490694281}
{"frame_id": 92, "timestamp": 1767514666.3487432, "image": "frames/frame_000092.jpg", "lat": 26.3905327, "lon": 80.3885482, "alt_agl": -0.032, "heading_deg": 125.44, "pitch": -2.6979035912572917, "roll": 0.6421669152451941}
{"frame_id": 93, "timestamp": 1767514667.3804502, "image": "frames/frame_000093.jpg", "lat": 26.3905324, "lon": 80.3885484, "alt_agl": 0.113, "heading_deg": 125.43, "pitch": -2.697691215062787, "roll": 0.7660569418357052}
{"frame_id": 94, "timestamp": 1767514668.3492033, "image": "frames/frame_000094.jpg", "lat": 26.3905322, "lon": 80.3885488, "alt_agl": 0.048, "heading_deg": 125.41, "pitch": -2.7231193690125095, "roll": 0.7829620869183098}
{"frame_id": 95, "timestamp": 1767514669.3479302, "image": "frames/frame_000095.jpg", "lat": 26.3905326, "lon": 80.3885493, "alt_agl": 0.068, "heading_deg": 125.39, "pitch": -2.720572989112564, "roll": 0.802542424999738}
{"frame_id": 96, "timestamp": 1767514670.3489726, "image": "frames/frame_000096.jpg", "lat": 26.3905335, "lon": 80.3885498, "alt_agl": -0.05, "heading_deg": 125.36, "pitch": -2.70698518153247, "roll": 0.7986347563816975}
{"frame_id": 97, "timestamp": 1767514671.3490381, "image": "frames/frame_000097.jpg", "lat": 26.3905341, "lon": 80.3885501, "alt_agl": -0.053, "heading_deg": 125.35, "pitch": -2.697696124261253, "roll": 0.808889111481708}
{"frame_id": 98, "timestamp": 1767514672.3484101, "image": "frames/frame_000098.jpg", "lat": 26.3905357, "lon": 80.3885508, "alt_agl": -0.043, "heading_deg": 125.32, "pitch": -2.6821463448420726, "roll": 0.7941411322380637}
{"frame_id": 99, "timestamp": 1767514673.3943422, "image": "frames/frame_000099.jpg", "lat": 26.3905366, "lon": 80.3885513, "alt_agl": -0.162, "heading_deg": 125.3, "pitch": -2.6980455311259814, "roll": 0.8292866176643048}
{"frame_id": 100, "timestamp": 1767514674.3497155, "image": "frames/frame_000100.jpg", "lat": 26.3905359, "lon": 80.3885512, "alt_agl": 0.022, "heading_deg": 125.27, "pitch": -2.716969850881971, "roll": 0.8833119198952247}
{"frame_id": 101, "timestamp": 1767514675.3489316, "image": "frames/frame_000101.jpg", "lat": 26.3905347, "lon": 80.3885508, "alt_agl": 0.109, "heading_deg": 125.25, "pitch": -2.7324218732186556, "roll": 0.9083314897943632}
{"frame_id": 102, "timestamp": 1767514676.3492603, "image": "frames/frame_000102.jpg", "lat": 26.3905339, "lon": 80.3885503, "alt_agl": 0.242, "heading_deg": 125.21, "pitch": -2.714166912001327, "roll": 0.8934015500423615}
{"frame_id": 103, "timestamp": 1767514677.3501954, "image": "frames/frame_000103.jpg", "lat": 26.3905322, "lon": 80.3885491, "alt_agl": 0.2, "heading_deg": 125.25, "pitch": -2.7231481838730707, "roll": 0.9396133293061985}
{"frame_id": 104, "timestamp": 1767514678.3497763, "image": "frames/frame_000104.jpg", "lat": 26.3905311, "lon": 80.3885481, "alt_agl": 0.187, "heading_deg": 125.22, "pitch": -2.721823767504323, "roll": 0.9315334289614849}
{"frame_id": 105, "timestamp": 1767514679.3931847, "image": "frames/frame_000105.jpg", "lat": 26.3905304, "lon": 80.3885473, "alt_agl": 0.25, "heading_deg": 125.25, "pitch": -2.7258794057674294, "roll": 0.8864424410517648}
{"frame_id": 106, "timestamp": 1767514680.349395, "image": "frames/frame_000106.jpg", "lat": 26.3905298, "lon": 80.3885468, "alt_agl": 0.323, "heading_deg": 125.29, "pitch": -2.751278744856591, "roll": 0.868409887869285}
{"frame_id": 107, "timestamp": 1767514681.349692, "image": "frames/frame_000107.jpg", "lat": 26.3905293, "lon": 80.3885465, "alt_agl": 0.362, "heading_deg": 125.28, "pitch": -2.7598886251922154, "roll": 0.8665766757682241}
{"frame_id": 108, "timestamp": 1767514682.3497999, "image": "frames/frame_000108.jpg", "lat": 26.3905282, "lon": 80.3885465, "alt_agl": 0.544, "heading_deg": 125.78, "pitch": -2.303513314098535, "roll": -0.001893349782268691}
{"frame_id": 109, "timestamp": 1767514683.3498502, "image": "frames/frame_000109.jpg", "lat": 26.3905258, "lon": 80.3885465, "alt_agl": 2.14, "heading_deg": 127.82, "pitch": 1.5171679356635415, "roll": -4.932491118563701}
{"frame_id": 110, "timestamp": 1767514684.349748, "image": "frames/frame_000110.jpg", "lat": 26.390527, "lon": 80.3885463, "alt_agl": 4.279, "heading_deg": 133.75, "pitch": 1.1119276895648074, "roll": -3.1635263381569354}
{"frame_id": 111, "timestamp": 1767514685.386519, "image": "frames/frame_000111.jpg", "lat": 26.3905298, "lon": 80.3885452, "alt_agl": 6.593, "heading_deg": 135.66, "pitch": -1.8161942578569343, "roll": -1.8046106839114158}
{"frame_id": 112, "timestamp": 1767514686.349991, "image": "frames/frame_000112.jpg", "lat": 26.390529, "lon": 80.3885469, "alt_agl": 8.404, "heading_deg": 133.71, "pitch": 3.4179303941724, "roll": -2.1949355044101346}
{"frame_id": 113, "timestamp": 1767514687.3463168, "image": "frames/frame_000113.jpg", "lat": 26.3905278, "lon": 80.3885469, "alt_agl": 9.204, "heading_deg": 134.15, "pitch": 3.074084157201972, "roll": -4.210084635053078}
{"frame_id": 114, "timestamp": 1767514688.3462148, "image": "frames/frame_000114.jpg", "lat": 26.3905276, "lon": 80.3885461, "alt_agl": 9.895, "heading_deg": 133.34, "pitch": 2.585508346153089, "roll": -4.833876420440234}
{"frame_id": 115, "timestamp": 1767514689.348539, "image": "frames/frame_000115.jpg", "lat": 26.3905286, "lon": 80.3885458, "alt_agl": 10.162, "heading_deg": 132.31, "pitch": 1.508111745154339, "roll": -6.095665930914525}
{"frame_id": 116, "timestamp": 1767514690.3490472, "image": "frames/frame_000116.jpg", "lat": 26.3905337, "lon": 80.3885495, "alt_agl": 10.169, "heading_deg": 108.17, "pitch": -0.3053571605020543, "roll": -14.422767470276911}
{"frame_id": 117, "timestamp": 1767514691.3832808, "image": "frames/frame_000117.jpg", "lat": 26.3905482, "lon": 80.3885551, "alt_agl": 10.195, "heading_deg": 41.49, "pitch": -16.359467609434027, "roll": -3.09016626448959}
{"frame_id": 118, "timestamp": 1767514692.3462822, "image": "frames/frame_000118.jpg", "lat": 26.3905714, "lon": 80.3885674, "alt_agl": 10.273, "heading_deg": 24.97, "pitch": -16.236305638320356, "roll": 1.3128450677984314}
{"frame_id": 119, "timestamp": 1767514693.3501294, "image": "frames/frame_000119.jpg", "lat": 26.3906017, "lon": 80.3885873, "alt_agl": 10.484, "heading_deg": 28.75, "pitch": -10.600506525825857, "roll": -2.428531816005979}
{"frame_id": 120, "timestamp": 1767514694.3471327, "image": "frames/frame_000120.jpg", "lat": 26.3906339, "lon": 80.3886069, "alt_agl": 10.228, "heading_deg": 28.33, "pitch": -9.4003663028001, "roll": -2.024978199745415}
{"frame_id": 121, "timestamp": 1767514695.3469198, "image": "frames/frame_000121.jpg", "lat": 26.3906582, "lon": 80.3886207, "alt_agl": 10.139, "heading_deg": 30.0, "pitch": -3.3518167243276156, "roll": 1.9328961506762417}
