{"frame_id": 0, "timestamp": 1767514050.6984832, "image": "frames/frame_000000.jpg", "lat": 0.0, "lon": 0.0, "alt_agl": 0.0, "heading_deg": 0.0, "pitch": 0.0, "roll": 0.0}
{"frame_id": 1, "timestamp": 1767514051.7242496, "image": "frames/frame_000001.jpg", "lat": 26.3905402, "lon": 80.3885354, "alt_agl": 0.547, "heading_deg": 129.12, "pitch": -2.5261149421213624, "roll": 0.9702099087452111}
{"frame_id": 2, "timestamp": 1767514052.758506, "image": "frames/frame_000002.jpg", "lat": 26.39054, "lon": 80.3885353, "alt_agl": 0.558, "heading_deg": 129.11, "pitch": -2.5271290117696976, "roll": 0.9678023737844874}
{"frame_id": 3, "timestamp": 1767514053.7215898, "image": "frames/frame_000003.jpg", "lat": 26.3905397, "lon": 80.3885352, "alt_agl": 0.561, "heading_deg": 129.1, "pitch": -2.546040311477582, "roll": 0.9836326178464613}
{"frame_id": 4, "timestamp": 1767514054.7215903, "image": "frames/frame_000004.jpg", "lat": 26.3905396, "lon": 80.3885353, "alt_agl": 0.641, "heading_deg": 129.07, "pitch": -2.558474457418179, "roll": 0.9796405857200005}
{"frame_id": 5, "timestamp": 1767514055.722093, "image": "frames/frame_000005.jpg", "lat": 26.3905391, "lon": 80.388535, "alt_agl": 0.668, "heading_deg": 129.05, "pitch": -2.575667537662982, "roll": 1.0111777035520648}
{"frame_id": 6, "timestamp": 1767514056.722032, "image": "frames/frame_000006.jpg", "lat": 26.3905389, "lon": 80.3885347, "alt_agl": 0.707, "heading_deg": 129.03, "pitch": -2.578338141628457, "roll": 0.9926022570522748}
{"frame_id": 7, "timestamp": 1767514057.7231214, "image": "frames/frame_000007.jpg", "lat": 26.3905386, "lon": 80.3885342, "alt_agl": 0.686, "heading_deg": 129.03, "pitch": -2.5714061399511285, "roll": 0.9996338300810971}
{"frame_id": 8, "timestamp": 1767514058.7634518, "image": "frames/frame_000008.jpg", "lat": 26.390538, "lon": 80.3885332, "alt_agl": 0.742, "heading_deg": 129.01, "pitch": -2.561632779579075, "roll": 1.016249332454211}
{"frame_id": 9, "timestamp": 1767514059.723111, "image": "frames/frame_000009.jpg", "lat": 26.3905375, "lon": 80.3885323, "alt_agl": 0.729, "heading_deg": 128.98, "pitch": -2.5602402747620387, "roll": 1.0176812175806806}
{"frame_id": 10, "timestamp": 1767514060.7236109, "image": "frames/frame_000010.jpg", "lat": 26.3905369, "lon": 80.3885314, "alt_agl": 0.763, "heading_deg": 128.97, "pitch": -2.58015219718333, "roll": 1.021231528566912}
{"frame_id": 11, "timestamp": 1767514061.7236674, "image": "frames/frame_000011.jpg", "lat": 26.3905363, "lon": 80.3885305, "alt_agl": 0.558, "heading_deg": 128.95, "pitch": -2.59951492970667, "roll": 1.0117081104297987}
{"frame_id": 12, "timestamp": 1767514062.7228272, "image": "frames/frame_000012.jpg", "lat": 26.390536, "lon": 80.3885297, "alt_agl": 0.465, "heading_deg": 128.94, "pitch": -2.609887212291569, "roll": 1.011592637544143}
{"frame_id": 13, "timestamp": 1767514063.7219348, "image": "frames/frame_000013.jpg", "lat": 26.3905361, "lon": 80.3885291, "alt_agl": 0.491, "heading_deg": 128.91, "pitch": -2.596541449540187, "roll": 0.9856342901600982}
{"frame_id": 14, "timestamp": 1767514064.7513797, "image": "frames/frame_000014.jpg", "lat": 26.3905364, "lon": 80.3885288, "alt_agl": 0.541, "heading_deg": 128.9, "pitch": -2.5989830287250553, "roll": 0.9604004764366034}
{"frame_id": 15, "timestamp": 1767514065.7230854, "image": "frames/frame_000015.jpg", "lat": 26.3905372, "lon": 80.3885286, "alt_agl": 0.536, "heading_deg": 128.85, "pitch": -2.5886094654796867, "roll": 0.961249874492918}
{"frame_id": 16, "timestamp": 1767514066.7244089, "image": "frames/frame_000016.jpg", "lat": 26.3905376, "lon": 80.3885286, "alt_agl": 0.554, "heading_deg": 128.83, "pitch": -2.602231637449042, "roll": 0.9612452854595693}
{"frame_id": 17, "timestamp": 1767514067.7241251, "image": "frames/frame_000017.jpg", "lat": 26.3905379, "lon": 80.3885282, "alt_agl": 0.682, "heading_deg": 128.8, "pitch": -2.5758122522960214, "roll": 1.018789949382044}
{"frame_id": 18, "timestamp": 1767514068.7209678, "image": "frames/frame_000018.jpg", "lat": 26.3905381, "lon": 80.388528, "alt_agl": 0.712, "heading_deg": 128.77, "pitch": -2.5724439018181475, "roll": 1.028619765536456}
{"frame_id": 19, "timestamp": 1767514069.725094, "image": "frames/frame_000019.jpg", "lat": 26.3905383, "lon": 80.388528, "alt_agl": 0.641, "heading_deg": 128.74, "pitch": -2.5866314853847334, "roll": 1.037528146483151}
{"frame_id": 20, "timestamp": 1767514070.7614777, "image": "frames/frame_000020.jpg", "lat": 26.3905389, "lon": 80.3885281, "alt_agl": 0.724, "heading_deg": 128.69, "pitch": -2.586662648122821, "roll": 1.0143296224106142}
{"frame_id": 21, "timestamp": 1767514071.7247312, "image": "frames/frame_000021.jpg", "lat": 26.3905396, "lon": 80.3885287, "alt_agl": 0.47, "heading_deg": 128.65, "pitch": -2.602471974730462, "roll": 0.9825900535026824}
{"frame_id": 22, "timestamp": 1767514072.7202873, "image": "frames/frame_000022.jpg", "lat": 26.3905399, "lon": 80.3885288, "alt_agl": 0.298, "heading_deg": 128.61, "pitch": -2.606703276921285, "roll": 1.0012540790182711}
{"frame_id": 23, "timestamp": 1767514073.7246728, "image": "frames/frame_000023.jpg", "lat": 26.3905413, "lon": 80.3885292, "alt_agl": 0.341, "heading_deg": 128.58, "pitch": -2.586960615125363, "roll": 1.0027769977597722}
{"frame_id": 24, "timestamp": 1767514074.7124553, "image": "frames/frame_000024.jpg", "lat": 26.3905426, "lon": 80.3885298, "alt_agl": 0.405, "heading_deg": 128.53, "pitch": -2.578770364536872, "roll": 1.0340717505980073}
{"frame_id": 25, "timestamp": 1767514075.7072651, "image": "frames/frame_000025.jpg", "lat": 26.3905432, "lon": 80.3885304, "alt_agl": 0.401, "heading_deg": 128.51, "pitch": -2.5815220769987404, "roll": 1.052325110989749}
{"frame_id": 26, "timestamp": 1767514076.7279294, "image": "frames/frame_000026.jpg", "lat": 26.3905432, "lon": 80.3885311, "alt_agl": 0.376, "heading_deg": 128.47, "pitch": -2.591426491625494, "roll": 1.1027725680343456}
{"frame_id": 27, "timestamp": 1767514077.708658, "image": "frames/frame_000027.jpg", "lat": 26.3905435, "lon": 80.3885314, "alt_agl": 0.379, "heading_deg": 128.43, "pitch": -2.573588812277771, "roll": 1.0957147414659012}
{"frame_id": 28, "timestamp": 1767514078.711094, "image": "frames/frame_000028.jpg", "lat": 26.390544, "lon": 80.3885319, "alt_agl": 0.43, "heading_deg": 128.38, "pitch": -2.5633742643740165, "roll": 1.1067685488639205}
{"frame_id": 29, "timestamp": 1767514079.7144606, "image": "frames/frame_000029.jpg", "lat": 26.3905444, "lon": 80.3885321, "alt_agl": 0.436, "heading_deg": 128.34, "pitch": -2.5517486420764204, "roll": 1.1076372635489815}
{"frame_id": 30, "timestamp": 1767514080.711516, "image": "frames/frame_000030.jpg", "lat": 26.3905453, "lon": 80.3885329, "alt_agl": 0.578, "heading_deg": 128.29, "pitch": -2.561449645131954, "roll": 1.0883854148779486}
{"frame_id": 31, "timestamp": 1767514081.7090943, "image": "frames/frame_000031.jpg", "lat": 26.3905456, "lon": 80.3885333, "alt_agl": 0.535, "heading_deg": 128.26, "pitch": -2.561796917562567, "roll": 1.1170494776686706}
{"frame_id": 32, "timestamp": 1767514082.7546368, "image": "frames/frame_000032.jpg", "lat": 26.3905461, "lon": 80.3885341, "alt_agl": 0.533, "heading_deg": 128.22, "pitch": -2.5766707216973272, "roll": 1.0937828651478454}
{"frame_id": 33, "timestamp": 1767514083.7111068, "image": "frames/frame_000033.jpg", "lat": 26.3905466, "lon": 80.3885346, "alt_agl": 0.579, "heading_deg": 128.19, "pitch": -2.5615642642439633, "roll": 1.090937664471712}
{"frame_id": 34, "timestamp": 1767514084.7093508, "image": "frames/frame_000034.jpg", "lat": 26.3905471, "lon": 80.3885346, "alt_agl": 0.559, "heading_deg": 128.18, "pitch": -2.542533222782192, "roll": 1.0873029366162072}
{"frame_id": 35, "timestamp": 1767514085.7120097, "image": "frames/frame_000035.jpg", "lat": 26.3905479, "lon": 80.3885353, "alt_agl": 0.564, "heading_deg": 128.17, "pitch": -2.5574892026304044, "roll": 1.0919422358882327}
{"frame_id": 36, "timestamp": 1767514086.709781, "image": "frames/frame_000036.jpg", "lat": 26.3905486, "lon": 80.388536, "alt_agl": 0.648, "heading_deg": 128.18, "pitch": -2.5540113556823987, "roll": 1.074217254661815}
{"frame_id": 37, "timestamp": 1767514087.7135222, "image": "frames/frame_000037.jpg", "lat": 26.3905493, "lon": 80.3885374, "alt_agl": 0.638, "heading_deg": 128.19, "pitch": -2.563439578057955, "roll": 1.038803150702122}
{"frame_id": 38, "timestamp": 1767514088.7188659, "image": "frames/frame_000038.jpg", "lat": 26.3905497, "lon": 80.3885383, "alt_agl": 0.632, "heading_deg": 128.2, "pitch": -2.5570153582567348, "roll": 1.0503046556558946}
{"frame_id": 39, "timestamp": 1767514089.7126868, "image": "frames/frame_000039.jpg", "lat": 26.3905502, "lon": 80.3885401, "alt_agl": 0.655, "heading_deg": 128.21, "pitch": -2.564917673683028, "roll": 1.0621930267931248}
{"frame_id": 40, "timestamp": 1767514090.7103517, "image": "frames/frame_000040.jpg", "lat": 26.3905507, "lon": 80.3885413, "alt_agl": 0.763, "heading_deg": 128.23, "pitch": -2.5495973459312777, "roll": 1.049588979896924}
{"frame_id": 41, "timestamp": 1767514091.712869, "image": "frames/frame_000041.jpg", "lat": 26.3905509, "lon": 80.3885424, "alt_agl": 0.712, "heading_deg": 128.25, "pitch": -2.5494816596022107, "roll": 1.09167895344007}
{"frame_id": 42, "timestamp": 1767514092.7106798, "image": "frames/frame_000042.jpg", "lat": 26.3905512, "lon": 80.3885432, "alt_agl": 0.669, "heading_deg": 128.26, "pitch": -2.5428045093582887, "roll": 1.087754369431663}
{"frame_id": 43, "timestamp": 1767514093.7131977, "image": "frames/frame_000043.jpg", "lat": 26.3905518, "lon": 80.388544, "alt_agl": 0.598, "heading_deg": 128.27, "pitch": -2.531107383517819, "roll": 1.101500338579725}
{"frame_id": 44, "timestamp": 1767514094.7192576, "image": "frames/frame_000044.jpg", "lat": 26.3905522, "lon": 80.3885443, "alt_agl": 0.765, "heading_deg": 128.28, "pitch": -2.5192277635604623, "roll": 1.1091153591740546}
{"frame_id": 45, "timestamp": 1767514095.7132938, "image": "frames/frame_000045.jpg", "lat": 26.390553, "lon": 80.388545, "alt_agl": 0.71, "heading_deg": 128.3, "pitch": -2.5097278241986207, "roll": 1.1014205107438007}
{"frame_id": 46, "timestamp": 1767514096.7108793, "image": "frames/frame_000046.jpg", "lat": 26.3905536, "lon": 80.3885454, "alt_agl": 0.554, "heading_deg": 128.31, "pitch": -2.5036944192839723, "roll": 1.1091453479733793}
{"frame_id": 47, "timestamp": 1767514097.7135983, "image": "frames/frame_000047.jpg", "lat": 26.3905541, "lon": 80.388546, "alt_agl": 0.523, "heading_deg": 128.33, "pitch": -2.530145180618493, "roll": 1.1286772344003828}
{"frame_id": 48, "timestamp": 1767514098.7112567, "image": "frames/frame_000048.jpg", "lat": 26.3905544, "lon": 80.3885465, "alt_agl": 0.559, "heading_deg": 128.34, "pitch": -2.5358274711211206, "roll": 1.1228943053292033}
{"frame_id": 49, "timestamp": 1767514099.7138116, "image": "frames/frame_000049.jpg", "lat": 26.390555, "lon": 80.3885473, "alt_agl": 0.686, "heading_deg": 128.37, "pitch": -2.555745156514524, "roll": 1.1125799726305436}
{"frame_id": 50, "timestamp": 1767514100.7226255, "image": "frames/frame_000050.jpg", "lat": 26.3905552, "lon": 80.3885478, "alt_agl": 0.652, "heading_deg": 128.38, "pitch": -2.563988767955906, "roll": 1.111296964283639}
{"frame_id": 51, "timestamp": 1767514101.729223, "image": "frames/frame_000051.jpg", "lat": 26.3905557, "lon": 80.3885482, "alt_agl": 0.623, "heading_deg": 128.4, "pitch": -2.5468379495065925, "roll": 1.1072086691785632}
{"frame_id": 52, "timestamp": 1767514102.7283368, "image": "frames/frame_000052.jpg", "lat": 26.390556, "lon": 80.3885482, "alt_agl": 0.574, "heading_deg": 128.42, "pitch": -2.5441778042682843, "roll": 1.1080654310325768}
{"frame_id": 53, "timestamp": 1767514103.7303805, "image": "frames/frame_000053.jpg", "lat": 26.3905561, "lon": 80.3885483, "alt_agl": 0.505, "heading_deg": 128.43, "pitch": -2.5447103455801336, "roll": 1.1077281904423073}
{"frame_id": 54, "timestamp": 1767514104.7298324, "image": "frames/frame_000054.jpg", "lat": 26.3905567, "lon": 80.3885486, "alt_agl": 0.479, "heading_deg": 128.46, "pitch": -2.536790100907269, "roll": 1.0679722206046018}
{"frame_id": 55, "timestamp": 1767514105.7303665, "image": "frames/frame_000055.jpg", "lat": 26.3905572, "lon": 80.3885485, "alt_agl": 0.458, "heading_deg": 128.47, "pitch": -2.5240596955114234, "roll": 1.0703013151115761}
{"frame_id": 56, "timestamp": 1767514106.7681115, "image": "frames/frame_000056.jpg", "lat": 26.3905574, "lon": 80.3885485, "alt_agl": 0.528, "heading_deg": 128.49, "pitch": -2.5307509330205087, "roll": 1.0711549820361221}
{"frame_id": 57, "timestamp": 1767514107.7272036, "image": "frames/frame_000057.jpg", "lat": 26.3905578, "lon": 80.3885484, "alt_agl": 0.606, "heading_deg": 128.51, "pitch": -2.5199060867224095, "roll": 1.0414875217676427}
{"frame_id": 58, "timestamp": 1767514108.7299652, "image": "frames/frame_000058.jpg", "lat": 26.3905581, "lon": 80.3885481, "alt_agl": 0.634, "heading_deg": 128.52, "pitch": -2.5194450489534335, "roll": 1.0363919872034018}
{"frame_id": 59, "timestamp": 1767514109.7265885, "image": "frames/frame_000059.jpg", "lat": 26.3905581, "lon": 80.3885483, "alt_agl": 0.68, "heading_deg": 128.54, "pitch": -2.542576338351328, "roll": 1.0223301218062264}
{"frame_id": 60, "timestamp": 1767514110.7291796, "image": "frames/frame_000060.jpg", "lat": 26.3905581, "lon": 80.3885485, "alt_agl": 0.758, "heading_deg": 128.56, "pitch": -2.5650850133176935, "roll": 1.0221732408987276}
{"frame_id": 61, "timestamp": 1767514111.7296112, "image": "frames/frame_000061.jpg", "lat": 26.3905587, "lon": 80.3885485, "alt_agl": 0.646, "heading_deg": 128.55, "pitch": -2.527895060173797, "roll": 1.005573746781481}
{"frame_id": 62, "timestamp": 1767514112.7699792, "image": "frames/frame_000062.jpg", "lat": 26.3905591, "lon": 80.3885485, "alt_agl": 0.64, "heading_deg": 128.55, "pitch": -2.5170000546739804, "roll": 1.010509625673873}
{"frame_id": 63, "timestamp": 1767514113.72878, "image": "frames/frame_000063.jpg", "lat": 26.3905592, "lon": 80.3885485, "alt_agl": 0.632, "heading_deg": 128.56, "pitch": -2.5261768407107157, "roll": 1.0087798802665673}
{"frame_id": 64, "timestamp": 1767514114.7269595, "image": "frames/frame_000064.jpg", "lat": 26.3905593, "lon": 80.3885485, "alt_agl": 0.687, "heading_deg": 128.56, "pitch": -2.5331799190440942, "roll": 1.0106333161308738}
{"frame_id": 65, "timestamp": 1767514115.7276943, "image": "frames/frame_000065.jpg", "lat": 26.3905594, "lon": 80.3885485, "alt_agl": 0.609, "heading_deg": 128.56, "pitch": -2.5463480968770558, "roll": 1.0126686057818317}
{"frame_id": 66, "timestamp": 1767514116.7279398, "image": "frames/frame_000066.jpg", "lat": 26.3905593, "lon": 80.3885483, "alt_agl": 0.552, "heading_deg": 128.57, "pitch": -2.5498769568004254, "roll": 1.0295741777512595}
{"frame_id": 67, "timestamp": 1767514117.7291088, "image": "frames/frame_000067.jpg", "lat": 26.3905594, "lon": 80.3885482, "alt_agl": 0.612, "heading_deg": 128.56, "pitch": -2.5449050059714793, "roll": 1.0187056392344769}
{"frame_id": 68, "timestamp": 1767514118.7655718, "image": "frames/frame_000068.jpg", "lat": 26.3905595, "lon": 80.3885481, "alt_agl": 0.669, "heading_deg": 128.56, "pitch": -2.5674151750417256, "roll": 1.017158601387469}
{"frame_id": 69, "timestamp": 1767514119.7310913, "image": "frames/frame_000069.jpg", "lat": 26.3905597, "lon": 80.388548, "alt_agl": 0.624, "heading_deg": 128.56, "pitch": -2.5646064731889693, "roll": 1.014391734443379}
{"frame_id": 70, "timestamp": 1767514120.7303104, "image": "frames/frame_000070.jpg", "lat": 26.3905598, "lon": 80.3885478, "alt_agl": 0.685, "heading_deg": 128.56, "pitch": -2.5872408663247453, "roll": 1.0275418763080635}
{"frame_id": 71, "timestamp": 1767514121.731326, "image": "frames/frame_000071.jpg", "lat": 26.3905598, "lon": 80.3885471, "alt_agl": 0.586, "heading_deg": 128.56, "pitch": -2.572078486697552, "roll": 1.052634177049692}
{"frame_id": 72, "timestamp": 1767514122.731982, "image": "frames/frame_000072.jpg", "lat": 26.39056, "lon": 80.3885463, "alt_agl": 0.571, "heading_deg": 128.56, "pitch": -2.551182376705544, "roll": 1.037158035607501}
{"frame_id": 73, "timestamp": 1767514123.7308156, "image": "frames/frame_000073.jpg", "lat": 26.3905603, "lon": 80.3885457, "alt_agl": 0.706, "heading_deg": 128.57, "pitch": -2.561719224160758, "roll": 1.035075361519176}
{"frame_id": 74, "timestamp": 1767514124.77066, "image": "frames/frame_000074.jpg", "lat": 26.3905603, "lon": 80.3885453, "alt_agl": 0.776, "heading_deg": 128.57, "pitch": -2.5857168803661863, "roll": 1.0243576207726623}
{"frame_id": 75, "timestamp": 1767514125.731543, "image": "frames/frame_000075.jpg", "lat": 26.3905606, "lon": 80.3885446, "alt_agl": 0.753, "heading_deg": 128.56, "pitch": -2.5762169410043447, "roll": 1.0295997909606471}
{"frame_id": 76, "timestamp": 1767514126.731848, "image": "frames/frame_000076.jpg", "lat": 26.390561, "lon": 80.388544, "alt_agl": 0.77, "heading_deg": 128.57, "pitch": -2.569148975873851, "roll": 1.0180511150129192}
{"frame_id": 77, "timestamp": 1767514127.730641, "image": "frames/frame_000077.jpg", "lat": 26.3905615, "lon": 80.3885433, "alt_agl": 0.725, "heading_deg": 128.58, "pitch": -2.569876177577046, "roll": 1.007287270489508}
{"frame_id": 78, "timestamp": 1767514128.731882, "image": "frames/frame_000078.jpg", "lat": 26.3905621, "lon": 80.3885426, "alt_agl": 0.742, "heading_deg": 128.58, "pitch": -2.5842729356869634, "roll": 0.9920940482893436}
{"frame_id": 79, "timestamp": 1767514129.728293, "image": "frames/frame_000079.jpg", "lat": 26.3905625, "lon": 80.3885422, "alt_agl": 0.726, "heading_deg": 128.58, "pitch": -2.58898683343133, "roll": 0.9861328939695091}
{"frame_id": 80, "timestamp": 1767514130.7597952, "image": "frames/frame_000080.jpg", "lat": 26.3905629, "lon": 80.3885416, "alt_agl": 0.737, "heading_deg": 128.58, "pitch": -2.60544203980236, "roll": 0.996469104617854}
{"frame_id": 81, "timestamp": 1767514131.7326498, "image": "frames/frame_000081.jpg", "lat": 26.3905643, "lon": 80.3885407, "alt_agl": 0.628, "heading_deg": 128.58, "pitch": -2.5556644749049533, "roll": 0.9546064483080228}
{"frame_id": 82, "timestamp": 1767514132.7327363, "image": "frames/frame_000082.jpg", "lat": 26.3905654, "lon": 80.3885403, "alt_agl": 0.437, "heading_deg": 128.58, "pitch": -2.5561818617345815, "roll": 0.9301795574019415}
{"frame_id": 83, "timestamp": 1767514133.7332163, "image": "frames/frame_000083.jpg", "lat": 26.3905659, "lon": 80.38854, "alt_agl": 0.603, "heading_deg": 128.59, "pitch": -2.5963066617874677, "roll": 0.9646055250878041}
{"frame_id": 84, "timestamp": 1767514134.7337646, "image": "frames/frame_000084.jpg", "lat": 26.3905663, "lon": 80.3885398, "alt_agl": 0.709, "heading_deg": 128.6, "pitch": -2.6163498519068704, "roll": 0.9753625394220452}
{"frame_id": 85, "timestamp": 1767514135.7293048, "image": "frames/frame_000085.jpg", "lat": 26.3905666, "lon": 80.3885395, "alt_agl": 0.689, "heading_deg": 128.6, "pitch": -2.6161479344395318, "roll": 0.9878999919738384}
{"frame_id": 86, "timestamp": 1767514136.7642145, "image": "frames/frame_000086.jpg", "lat": 26.390567, "lon": 80.3885392, "alt_agl": 0.623, "heading_deg": 128.6, "pitch": -2.61296293185219, "roll": 0.9857055802595601}
{"frame_id": 87, "timestamp": 1767514137.7298715, "image": "frames/frame_000087.jpg", "lat": 26.3905672, "lon": 80.3885392, "alt_agl": 0.681, "heading_deg": 128.61, "pitch": -2.611486757217821, "roll": 1.0017827783487123}
{"frame_id": 88, "timestamp": 1767514138.7332053, "image": "frames/frame_000088.jpg", "lat": 26.3905671, "lon": 80.3885392, "alt_agl": 0.649, "heading_deg": 128.62, "pitch": -2.619463137507927, "roll": 1.0016094622985232}
{"frame_id": 89, "timestamp": 1767514139.732911, "image": "frames/frame_000089.jpg", "lat": 26.3905671, "lon": 80.3885392, "alt_agl": 0.613, "heading_deg": 128.61, "pitch": -2.602028225877823, "roll": 0.9900039036816138}
{"frame_id": 90, "timestamp": 1767514140.732673, "image": "frames/frame_000090.jpg", "lat": 26.390567, "lon": 80.3885397, "alt_agl": 0.743, "heading_deg": 128.61, "pitch": -2.615114654884156, "roll": 0.9977911731090746}
{"frame_id": 91, "timestamp": 1767514141.731149, "image": "frames/frame_000091.jpg", "lat": 26.3905673, "lon": 80.3885398, "alt_agl": 0.767, "heading_deg": 128.62, "pitch": -2.5590667628852657, "roll": 0.9634944454089134}
{"frame_id": 92, "timestamp": 1767514142.764343, "image": "frames/frame_000092.jpg", "lat": 26.3905675, "lon": 80.38854, "alt_agl": 0.829, "heading_deg": 128.62, "pitch": -2.5440307417577173, "roll": 0.975836810682538}
{"frame_id": 93, "timestamp": 1767514143.7331374, "image": "frames/frame_000093.jpg", "lat": 26.3905679, "lon": 80.3885402, "alt_agl": 0.839, "heading_deg": 128.61, "pitch": -2.52932534447468, "roll": 0.9684917960038355}
{"frame_id": 94, "timestamp": 1767514144.7342176, "image": "frames/frame_000094.jpg", "lat": 26.3905682, "lon": 80.3885405, "alt_agl": 0.87, "heading_deg": 128.61, "pitch": -2.535881899191069, "roll": 0.9668363289037537}
{"frame_id": 95, "timestamp": 1767514145.7312193, "image": "frames/frame_000095.jpg", "lat": 26.3905684, "lon": 80.3885408, "alt_agl": 0.878, "heading_deg": 128.61, "pitch": -2.542508890233274, "roll": 0.9809598794468707}
{"frame_id": 96, "timestamp": 1767514146.7330575, "image": "frames/frame_000096.jpg", "lat": 26.3905686, "lon": 80.3885411, "alt_agl": 0.864, "heading_deg": 128.61, "pitch": -2.546231343330931, "roll": 1.0086621662250903}
{"frame_id": 97, "timestamp": 1767514147.731825, "image": "frames/frame_000097.jpg", "lat": 26.3905685, "lon": 80.3885413, "alt_agl": 0.766, "heading_deg": 128.61, "pitch": -2.5738526283344627, "roll": 1.0431568626894763}
{"frame_id": 98, "timestamp": 1767514148.7674217, "image": "frames/frame_000098.jpg", "lat": 26.3905685, "lon": 80.3885414, "alt_agl": 0.81, "heading_deg": 128.61, "pitch": -2.563541177121859, "roll": 1.054356451937593}
{"frame_id": 99, "timestamp": 1767514149.7304382, "image": "frames/frame_000099.jpg", "lat": 26.3905685, "lon": 80.3885415, "alt_agl": 0.736, "heading_deg": 128.61, "pitch": -2.5516498177768665, "roll": 1.0442496929566782}
{"frame_id": 100, "timestamp": 1767514150.7339709, "image": "frames/frame_000100.jpg", "lat": 26.3905683, "lon": 80.3885415, "alt_agl": 0.785, "heading_deg": 128.62, "pitch": -2.563482480183679, "roll": 1.0510763603104}
{"frame_id": 101, "timestamp": 1767514151.7318738, "image": "frames/frame_000101.jpg", "lat": 26.3905678, "lon": 80.3885411, "alt_agl": 0.746, "heading_deg": 128.61, "pitch": -2.546055465959803, "roll": 1.0633168063550036}
{"frame_id": 102, "timestamp": 1767514152.7350523, "image": "frames/frame_000102.jpg", "lat": 26.3905676, "lon": 80.3885407, "alt_agl": 0.729, "heading_deg": 128.6, "pitch": -2.5339062669736427, "roll": 1.0508877830562844}
{"frame_id": 103, "timestamp": 1767514153.7308114, "image": "frames/frame_000103.jpg", "lat": 26.3905676, "lon": 80.3885406, "alt_agl": 0.705, "heading_deg": 128.61, "pitch": -2.5338778789999052, "roll": 1.0324642015438212}
{"frame_id": 104, "timestamp": 1767514154.7734544, "image": "frames/frame_000104.jpg", "lat": 26.3905675, "lon": 80.3885405, "alt_agl": 0.553, "heading_deg": 128.61, "pitch": -2.533244165510975, "roll": 1.024351004026904}
{"frame_id": 105, "timestamp": 1767514155.7357984, "image": "frames/frame_000105.jpg", "lat": 26.3905678, "lon": 80.3885406, "alt_agl": 0.416, "heading_deg": 128.6, "pitch": -2.5416271555001075, "roll": 0.9975095345275173}
{"frame_id": 106, "timestamp": 1767514156.7345839, "image": "frames/frame_000106.jpg", "lat": 26.3905682, "lon": 80.3885409, "alt_agl": 0.546, "heading_deg": 128.61, "pitch": -2.5305229754569596, "roll": 0.9851578844654898}
{"frame_id": 107, "timestamp": 1767514157.734493, "image": "frames/frame_000107.jpg", "lat": 26.3905684, "lon": 80.3885409, "alt_agl": 0.633, "heading_deg": 128.61, "pitch": -2.531951338767138, "roll": 1.0014013549722496}
{"frame_id": 108, "timestamp": 1767514158.7375727, "image": "frames/frame_000108.jpg", "lat": 26.3905685, "lon": 80.388541, "alt_agl": 0.615, "heading_deg": 128.61, "pitch": -2.5386748062313695, "roll": 1.0048185839913715}
{"frame_id": 109, "timestamp": 1767514159.7339916, "image": "frames/frame_000109.jpg", "lat": 26.3905687, "lon": 80.3885409, "alt_agl": 0.705, "heading_deg": 128.6, "pitch": -2.536616357970257, "roll": 1.0218327986572848}
{"frame_id": 110, "timestamp": 1767514160.778103, "image": "frames/frame_000110.jpg", "lat": 26.3905685, "lon": 80.3885409, "alt_agl": 0.627, "heading_deg": 128.6, "pitch": -2.5594996261239156, "roll": 1.0328081656015549}
{"frame_id": 111, "timestamp": 1767514161.731224, "image": "frames/frame_000111.jpg", "lat": 26.390568, "lon": 80.3885408, "alt_agl": 0.584, "heading_deg": 128.59, "pitch": -2.572142306277609, "roll": 1.0497272912276168}
{"frame_id": 112, "timestamp": 1767514162.7359223, "image": "frames/frame_000112.jpg", "lat": 26.3905676, "lon": 80.3885404, "alt_agl": 0.529, "heading_deg": 128.59, "pitch": -2.555455513805033, "roll": 1.0431873850973297}
{"frame_id": 113, "timestamp": 1767514163.7356553, "image": "frames/frame_000113.jpg", "lat": 26.3905668, "lon": 80.3885398, "alt_agl": 0.547, "heading_deg": 128.58, "pitch": -2.5525964393071483, "roll": 1.0599211351204494}
{"frame_id": 114, "timestamp": 1767514164.7355254, "image": "frames/frame_000114.jpg", "lat": 26.3905663, "lon": 80.3885395, "alt_agl": 0.537, "heading_deg": 128.59, "pitch": -2.555770129393677, "roll": 1.027382860966449}
{"frame_id": 115, "timestamp": 1767514165.7350285, "image": "frames/frame_000115.jpg", "lat": 26.390566, "lon": 80.3885392, "alt_agl": 0.461, "heading_deg": 128.58, "pitch": -2.5335724414779586, "roll": 1.0068886649184143}
{"frame_id": 116, "timestamp": 1767514166.7755678, "image": "frames/frame_000116.jpg", "lat": 26.3905659, "lon": 80.3885389, "alt_agl": 0.577, "heading_deg": 128.57, "pitch": -2.514122624042701, "roll": 0.9657708193932317}
{"frame_id": 117, "timestamp": 1767514167.7352734, "image": "frames/frame_000117.jpg", "lat": 26.3905654, "lon": 80.3885384, "alt_agl": 0.577, "heading_deg": 128.57, "pitch": -2.5178815759637354, "roll": 0.9816347875142326}
{"frame_id": 118, "timestamp": 1767514168.7372344, "image": "frames/frame_000118.jpg", "lat": 26.3905648, "lon": 80.3885379, "alt_agl": 0.542, "heading_deg": 128.57, "pitch": -2.5308973552008407, "roll": 0.9906591749551119}
{"frame_id": 119, "timestamp": 1767514169.7353253, "image": "frames/frame_000119.jpg", "lat": 26.3905642, "lon": 80.3885373, "alt_agl": 0.583, "heading_deg": 128.56, "pitch": -2.527865818426413, "roll": 0.9609077247041826}
{"frame_id": 120, "timestamp": 1767514170.7356684, "image": "frames/frame_000120.jpg", "lat": 26.3905635, "lon": 80.3885368, "alt_agl": 0.656, "heading_deg": 128.55, "pitch": -2.55460835690454, "roll": 0.9587767056831387}
{"frame_id": 121, "timestamp": 1767514171.7368596, "image": "frames/frame_000121.jpg", "lat": 26.3905624, "lon": 80.3885363, "alt_agl": 0.7, "heading_deg": 128.56, "pitch": -2.563257083941069, "roll": 0.9501352357226032}
{"frame_id": 122, "timestamp": 1767514172.7726421, "image": "frames/frame_000122.jpg", "lat": 26.3905615, "lon": 80.3885358, "alt_agl": 0.535, "heading_deg": 128.55, "pitch": -2.549665647822978, "roll": 0.9431449639939182}
{"frame_id": 123, "timestamp": 1767514173.7355678, "image": "frames/frame_000123.jpg", "lat": 26.390561, "lon": 80.3885354, "alt_agl": 0.642, "heading_deg": 128.55, "pitch": -2.5394267673703057, "roll": 0.929818944758106}
{"frame_id": 124, "timestamp": 1767514174.7364662, "image": "frames/frame_000124.jpg", "lat": 26.3905605, "lon": 80.3885349, "alt_agl": 0.853, "heading_deg": 128.55, "pitch": -2.5124731333581427, "roll": 0.9110357110971594}
{"frame_id": 125, "timestamp": 1767514175.7340472, "image": "frames/frame_000125.jpg", "lat": 26.3905601, "lon": 80.3885344, "alt_agl": 0.944, "heading_deg": 128.55, "pitch": -2.515412676022187, "roll": 0.9235472302744475}
{"frame_id": 126, "timestamp": 1767514176.7382922, "image": "frames/frame_000126.jpg", "lat": 26.3905596, "lon": 80.3885343, "alt_agl": 1.002, "heading_deg": 128.54, "pitch": -2.5310094129919114, "roll": 0.9227460704291462}
{"frame_id": 127, "timestamp": 1767514177.7359917, "image": "frames/frame_000127.jpg", "lat": 26.3905592, "lon": 80.3885342, "alt_agl": 1.104, "heading_deg": 128.54, "pitch": -2.5233935386239357, "roll": 0.9255372699221542}
{"frame_id": 128, "timestamp": 1767514178.7718346, "image": "frames/frame_000128.jpg", "lat": 26.3905589, "lon": 80.3885342, "alt_agl": 1.088, "heading_deg": 128.54, "pitch": -2.5242496601477145, "roll": 0.9302960975046548}
{"frame_id": 129, "timestamp": 1767514179.7361012, "image": "frames/frame_000129.jpg", "lat": 26.3905587, "lon": 80.3885342, "alt_agl": 1.099, "heading_deg": 128.53, "pitch": -2.518616675073158, "roll": 0.945273635137435}
{"frame_id": 130, "timestamp": 1767514180.7375715, "image": "frames/frame_000130.jpg", "lat": 26.3905585, "lon": 80.3885343, "alt_agl": 1.269, "heading_deg": 128.53, "pitch": -2.5436205035206934, "roll": 0.9551003563623793}
{"frame_id": 131, "timestamp": 1767514181.7346327, "image": "frames/frame_000131.jpg", "lat": 26.3905581, "lon": 80.3885343, "alt_agl": 0.959, "heading_deg": 128.52, "pitch": -2.5373192271245335, "roll": 0.9894491642549619}
{"frame_id": 132, "timestamp": 1767514182.734759, "image": "frames/frame_000132.jpg", "lat": 26.3905578, "lon": 80.3885342, "alt_agl": 0.861, "heading_deg": 128.51, "pitch": -2.5226249288988973, "roll": 1.002839750122772}
{"frame_id": 133, "timestamp": 1767514183.7344427, "image": "frames/frame_000133.jpg", "lat": 26.3905576, "lon": 80.3885343, "alt_agl": 1.094, "heading_deg": 128.5, "pitch": -2.526307468078592, "roll": 1.0026046422049353}
{"frame_id": 134, "timestamp": 1767514184.776401, "image": "frames/frame_000134.jpg", "lat": 26.3905575, "lon": 80.3885346, "alt_agl": 0.939, "heading_deg": 128.49, "pitch": -2.526371501102061, "roll": 0.9898967550890092}
{"frame_id": 135, "timestamp": 1767514185.7367883, "image": "frames/frame_000135.jpg", "lat": 26.3905569, "lon": 80.3885349, "alt_agl": 0.781, "heading_deg": 128.49, "pitch": -2.548445818725896, "roll": 1.00395114996678}
{"frame_id": 136, "timestamp": 1767514186.737499, "image": "frames/frame_000136.jpg", "lat": 26.3905566, "lon": 80.3885352, "alt_agl": 0.709, "heading_deg": 128.48, "pitch": -2.559374121397916, "roll": 0.990462807016474}
{"frame_id": 137, "timestamp": 1767514187.7377672, "image": "frames/frame_000137.jpg", "lat": 26.3905565, "lon": 80.3885356, "alt_agl": 0.752, "heading_deg": 128.48, "pitch": -2.5492793152480493, "roll": 0.9877845190881828}
{"frame_id": 138, "timestamp": 1767514188.7354515, "image": "frames/frame_000138.jpg", "lat": 26.3905562, "lon": 80.3885359, "alt_agl": 0.744, "heading_deg": 128.47, "pitch": -2.554091823848558, "roll": 1.00232599183114}
{"frame_id": 139, "timestamp": 1767514189.7369459, "image": "frames/frame_000139.jpg", "lat": 26.3905558, "lon": 80.3885364, "alt_agl": 0.911, "heading_deg": 128.47, "pitch": -2.5563447190576043, "roll": 1.009423625595841}
{"frame_id": 140, "timestamp": 1767514190.772092, "image": "frames/frame_000140.jpg", "lat": 26.3905556, "lon": 80.388537, "alt_agl": 0.953, "heading_deg": 128.45, "pitch": -2.540953528093215, "roll": 1.0190031793501955}
{"frame_id": 141, "timestamp": 1767514191.7347803, "image": "frames/frame_000141.jpg", "lat": 26.3905556, "lon": 80.3885377, "alt_agl": 0.854, "heading_deg": 128.45, "pitch": -2.5353664333521446, "roll": 1.0279095325844805}
{"frame_id": 142, "timestamp": 1767514192.7392619, "image": "frames/frame_000142.jpg", "lat": 26.3905557, "lon": 80.3885382, "alt_agl": 0.844, "heading_deg": 128.44, "pitch": -2.5276685967141286, "roll": 1.0384066795651439}
{"frame_id": 143, "timestamp": 1767514193.7388396, "image": "frames/frame_000143.jpg", "lat": 26.3905558, "lon": 80.3885388, "alt_agl": 0.898, "heading_deg": 128.42, "pitch": -2.515714485006137, "roll": 1.0225487945813725}
{"frame_id": 144, "timestamp": 1767514194.736704, "image": "frames/frame_000144.jpg", "lat": 26.3905559, "lon": 80.3885392, "alt_agl": 0.745, "heading_deg": 128.4, "pitch": -2.51249597180318, "roll": 1.0264485124323324}
{"frame_id": 145, "timestamp": 1767514195.7394342, "image": "frames/frame_000145.jpg", "lat": 26.3905562, "lon": 80.3885395, "alt_agl": 0.616, "heading_deg": 128.39, "pitch": -2.510714146203453, "roll": 1.0295926406063598}
{"frame_id": 146, "timestamp": 1767514196.785093, "image": "frames/frame_000146.jpg", "lat": 26.3905564, "lon": 80.3885397, "alt_agl": 0.673, "heading_deg": 128.38, "pitch": -2.5131740815217154, "roll": 1.0318733901806152}
{"frame_id": 147, "timestamp": 1767514197.7390287, "image": "frames/frame_000147.jpg", "lat": 26.3905567, "lon": 80.3885399, "alt_agl": 0.703, "heading_deg": 128.37, "pitch": -2.521139789641243, "roll": 1.023952932064339}
{"frame_id": 148, "timestamp": 1767514198.7378821, "image": "frames/frame_000148.jpg", "lat": 26.390557, "lon": 80.3885401, "alt_agl": 0.66, "heading_deg": 128.35, "pitch": -2.5299569235294945, "roll": 1.0190778845442425}
{"frame_id": 149, "timestamp": 1767514199.7385118, "image": "frames/frame_000149.jpg", "lat": 26.3905573, "lon": 80.3885401, "alt_agl": 0.731, "heading_deg": 128.34, "pitch": -2.5215585656147295, "roll": 1.0287572230935025}
{"frame_id": 150, "timestamp": 1767514200.7387395, "image": "frames/frame_000150.jpg", "lat": 26.3905576, "lon": 80.3885403, "alt_agl": 0.837, "heading_deg": 128.33, "pitch": -2.5420331248689, "roll": 1.0221306589381207}
{"frame_id": 151, "timestamp": 1767514201.7383602, "image": "frames/frame_000151.jpg", "lat": 26.3905584, "lon": 80.3885406, "alt_agl": 0.879, "heading_deg": 128.31, "pitch": -2.540147779214565, "roll": 1.032364203305504}
{"frame_id": 152, "timestamp": 1767514202.7762072, "image": "frames/frame_000152.jpg", "lat": 26.3905595, "lon": 80.388541, "alt_agl": 0.893, "heading_deg": 128.31, "pitch": -2.535771548947291, "roll": 1.02849671540969}
{"frame_id": 153, "timestamp": 1767514203.7384374, "image": "frames/frame_000153.jpg", "lat": 26.3905609, "lon": 80.3885414, "alt_agl": 0.787, "heading_deg": 128.29, "pitch": -2.5363783685663646, "roll": 1.0372900503575526}
{"frame_id": 154, "timestamp": 1767514204.7387345, "image": "frames/frame_000154.jpg", "lat": 26.3905618, "lon": 80.3885417, "alt_agl": 0.678, "heading_deg": 128.28, "pitch": -2.545055056689808, "roll": 1.0678748904089292}
{"frame_id": 155, "timestamp": 1767514205.73847, "image": "frames/frame_000155.jpg", "lat": 26.390563, "lon": 80.3885421, "alt_agl": 0.632, "heading_deg": 128.26, "pitch": -2.5403757367781146, "roll": 1.0812413571712325}
{"frame_id": 156, "timestamp": 1767514206.7388499, "image": "frames/frame_000156.jpg", "lat": 26.3905643, "lon": 80.3885422, "alt_agl": 0.488, "heading_deg": 128.24, "pitch": -2.5411974939126316, "roll": 1.1012589340812475}
{"frame_id": 157, "timestamp": 1767514207.7391322, "image": "frames/frame_000157.jpg", "lat": 26.3905655, "lon": 80.3885425, "alt_agl": 0.717, "heading_deg": 128.23, "pitch": -2.541591297006965, "roll": 1.1038680663441924}
{"frame_id": 158, "timestamp": 1767514208.7815912, "image": "frames/frame_000158.jpg", "lat": 26.3905666, "lon": 80.3885427, "alt_agl": 0.775, "heading_deg": 128.21, "pitch": -2.547396957801476, "roll": 1.1223076561125227}
{"frame_id": 159, "timestamp": 1767514209.7388327, "image": "frames/frame_000159.jpg", "lat": 26.3905678, "lon": 80.3885431, "alt_agl": 0.819, "heading_deg": 128.2, "pitch": -2.566711238670391, "roll": 1.119049442435015}
{"frame_id": 160, "timestamp": 1767514210.7362154, "image": "frames/frame_000160.jpg", "lat": 26.3905683, "lon": 80.3885432, "alt_agl": 0.818, "heading_deg": 128.18, "pitch": -2.577810722958485, "roll": 1.1345859883626783}
{"frame_id": 161, "timestamp": 1767514211.737686, "image": "frames/frame_000161.jpg", "lat": 26.3905694, "lon": 80.3885435, "alt_agl": 0.753, "heading_deg": 128.17, "pitch": -2.572498329888096, "roll": 1.1098468297454807}
{"frame_id": 162, "timestamp": 1767514212.7372184, "image": "frames/frame_000162.jpg", "lat": 26.3905707, "lon": 80.3885438, "alt_agl": 0.663, "heading_deg": 128.16, "pitch": -2.57153612698877, "roll": 1.0959503829922665}
{"frame_id": 163, "timestamp": 1767514213.7383468, "image": "frames/frame_000163.jpg", "lat": 26.3905717, "lon": 80.3885443, "alt_agl": 0.774, "heading_deg": 128.14, "pitch": -2.593567969373704, "roll": 1.1183798704529422}
{"frame_id": 164, "timestamp": 1767514214.7735646, "image": "frames/frame_000164.jpg", "lat": 26.3905724, "lon": 80.3885447, "alt_agl": 0.741, "heading_deg": 128.12, "pitch": -2.6035295868347563, "roll": 1.123840820137779}
{"frame_id": 165, "timestamp": 1767514215.7405846, "image": "frames/frame_000165.jpg", "lat": 26.3905731, "lon": 80.388545, "alt_agl": 0.7, "heading_deg": 128.11, "pitch": -2.6007620795604316, "roll": 1.1048090316240673}
{"frame_id": 166, "timestamp": 1767514216.7426426, "image": "frames/frame_000166.jpg", "lat": 26.3905731, "lon": 80.3885452, "alt_agl": 0.742, "heading_deg": 128.1, "pitch": -2.608083188577039, "roll": 1.143346132860043}
{"frame_id": 167, "timestamp": 1767514217.7406352, "image": "frames/frame_000167.jpg", "lat": 26.3905728, "lon": 80.3885452, "alt_agl": 0.978, "heading_deg": 128.09, "pitch": -2.6102739717533208, "roll": 1.1456315781893527}
{"frame_id": 168, "timestamp": 1767514218.7396886, "image": "frames/frame_000168.jpg", "lat": 26.3905726, "lon": 80.388545, "alt_agl": 0.997, "heading_deg": 128.07, "pitch": -2.58206827868893, "roll": 1.1355708162636295}
{"frame_id": 169, "timestamp": 1767514219.7400658, "image": "frames/frame_000169.jpg", "lat": 26.3905723, "lon": 80.3885449, "alt_agl": 0.925, "heading_deg": 128.06, "pitch": -2.5751036201696325, "roll": 1.1211063965922468}
{"frame_id": 170, "timestamp": 1767514220.7748127, "image": "frames/frame_000170.jpg", "lat": 26.3905716, "lon": 80.3885447, "alt_agl": 0.968, "heading_deg": 128.04, "pitch": -2.5792576558454696, "roll": 1.0999806214893972}
{"frame_id": 171, "timestamp": 1767514221.7397442, "image": "frames/frame_000171.jpg", "lat": 26.390571, "lon": 80.3885442, "alt_agl": 0.919, "heading_deg": 128.03, "pitch": -2.5516178012651323, "roll": 1.0737663554548884}
{"frame_id": 172, "timestamp": 1767514222.7423258, "image": "frames/frame_000172.jpg", "lat": 26.3905707, "lon": 80.388544, "alt_agl": 1.128, "heading_deg": 128.01, "pitch": -2.532407467337648, "roll": 1.0374853510791326}
{"frame_id": 173, "timestamp": 1767514223.739933, "image": "frames/frame_000173.jpg", "lat": 26.3905698, "lon": 80.3885436, "alt_agl": 0.864, "heading_deg": 128.0, "pitch": -2.5387589029355255, "roll": 1.0272999382010568}
{"frame_id": 174, "timestamp": 1767514224.742009, "image": "frames/frame_000174.jpg", "lat": 26.3905688, "lon": 80.3885431, "alt_agl": 0.873, "heading_deg": 128.0, "pitch": -2.529344340938309, "roll": 1.0153316325061963}
{"frame_id": 175, "timestamp": 1767514225.7401624, "image": "frames/frame_000175.jpg", "lat": 26.390568, "lon": 80.3885425, "alt_agl": 0.779, "heading_deg": 127.98, "pitch": -2.5187423932425683, "roll": 1.0156414456180798}
{"frame_id": 176, "timestamp": 1767514226.7747252, "image": "frames/frame_000176.jpg", "lat": 26.3905665, "lon": 80.3885415, "alt_agl": 0.848, "heading_deg": 127.97, "pitch": -2.5155151288597373, "roll": 1.0281504034744293}
{"frame_id": 177, "timestamp": 1767514227.7428904, "image": "frames/frame_000177.jpg", "lat": 26.3905654, "lon": 80.3885404, "alt_agl": 0.736, "heading_deg": 127.96, "pitch": -2.4917219514425866, "roll": 1.0012241969406523}
{"frame_id": 178, "timestamp": 1767514228.7418485, "image": "frames/frame_000178.jpg", "lat": 26.3905643, "lon": 80.3885393, "alt_agl": 0.606, "heading_deg": 127.93, "pitch": -2.496284944694978, "roll": 0.9936955142063}
{"frame_id": 179, "timestamp": 1767514229.7423334, "image": "frames/frame_000179.jpg", "lat": 26.3905626, "lon": 80.388538, "alt_agl": 0.593, "heading_deg": 127.91, "pitch": -2.519000873213971, "roll": 1.0095291733628589}
{"frame_id": 180, "timestamp": 1767514230.743799, "image": "frames/frame_000180.jpg", "lat": 26.3905612, "lon": 80.388537, "alt_agl": 0.74, "heading_deg": 127.88, "pitch": -2.5437553997568014, "roll": 0.9972031365102189}
{"frame_id": 181, "timestamp": 1767514231.7418165, "image": "frames/frame_000181.jpg", "lat": 26.3905603, "lon": 80.388536, "alt_agl": 0.801, "heading_deg": 127.86, "pitch": -2.5105536367579577, "roll": 0.9451512253409037}
{"frame_id": 182, "timestamp": 1767514232.7753963, "image": "frames/frame_000182.jpg", "lat": 26.3905598, "lon": 80.3885351, "alt_agl": 0.825, "heading_deg": 127.83, "pitch": -2.507342807517817, "roll": 0.9147024554643984}
{"frame_id": 183, "timestamp": 1767514233.738765, "image": "frames/frame_000183.jpg", "lat": 26.3905588, "lon": 80.3885344, "alt_agl": 0.676, "heading_deg": 127.81, "pitch": -2.53298397799228, "roll": 0.9094445971856637}
{"frame_id": 184, "timestamp": 1767514234.7381017, "image": "frames/frame_000184.jpg", "lat": 26.3905582, "lon": 80.3885339, "alt_agl": 0.824, "heading_deg": 127.81, "pitch": -2.5308446346781848, "roll": 0.9170410482031873}
{"frame_id": 185, "timestamp": 1767514235.7435136, "image": "frames/frame_000185.jpg", "lat": 26.3905574, "lon": 80.3885334, "alt_agl": 0.873, "heading_deg": 127.79, "pitch": -2.5540958792733774, "roll": 0.9057259860694149}
{"frame_id": 186, "timestamp": 1767514236.7424302, "image": "frames/frame_000186.jpg", "lat": 26.3905565, "lon": 80.3885329, "alt_agl": 0.758, "heading_deg": 127.77, "pitch": -2.5594733725842933, "roll": 0.9165236613735588}
{"frame_id": 187, "timestamp": 1767514237.7420301, "image": "frames/frame_000187.jpg", "lat": 26.390556, "lon": 80.3885324, "alt_agl": 0.701, "heading_deg": 127.76, "pitch": -2.5422570270076297, "roll": 0.9168562062087738}
{"frame_id": 188, "timestamp": 1767514238.7754457, "image": "frames/frame_000188.jpg", "lat": 26.3905556, "lon": 80.3885319, "alt_agl": 0.863, "heading_deg": 127.74, "pitch": -2.538135007843527, "roll": 0.9233309053768286}
{"frame_id": 189, "timestamp": 1767514239.7430751, "image": "frames/frame_000189.jpg", "lat": 26.3905554, "lon": 80.3885314, "alt_agl": 0.835, "heading_deg": 127.72, "pitch": -2.5285584422969345, "roll": 0.9196752600669909}
{"frame_id": 190, "timestamp": 1767514240.7435853, "image": "frames/frame_000190.jpg", "lat": 26.390555, "lon": 80.3885311, "alt_agl": 0.901, "heading_deg": 127.7, "pitch": -2.534564953341726, "roll": 0.9364575684662411}
{"frame_id": 191, "timestamp": 1767514241.7402594, "image": "frames/frame_000191.jpg", "lat": 26.3905551, "lon": 80.3885306, "alt_agl": 0.922, "heading_deg": 127.69, "pitch": -2.524625320552065, "roll": 0.9280175890862209}
{"frame_id": 192, "timestamp": 1767514242.7425077, "image": "frames/frame_000192.jpg", "lat": 26.3905552, "lon": 80.3885303, "alt_agl": 0.881, "heading_deg": 127.68, "pitch": -2.5127008774782804, "roll": 0.9336894208616818}
{"frame_id": 193, "timestamp": 1767514243.7422547, "image": "frames/frame_000193.jpg", "lat": 26.3905555, "lon": 80.3885299, "alt_agl": 1.006, "heading_deg": 127.67, "pitch": -2.5201620053728733, "roll": 0.9475503292868707}
{"frame_id": 194, "timestamp": 1767514244.7718494, "image": "frames/frame_000194.jpg", "lat": 26.3905557, "lon": 80.3885296, "alt_agl": 0.928, "heading_deg": 127.66, "pitch": -2.5314576441561933, "roll": 0.979338990179462}
{"frame_id": 195, "timestamp": 1767514245.7428071, "image": "frames/frame_000195.jpg", "lat": 26.3905559, "lon": 80.3885296, "alt_agl": 0.898, "heading_deg": 127.65, "pitch": -2.562587938845819, "roll": 0.983315867823702}
{"frame_id": 196, "timestamp": 1767514246.7428262, "image": "frames/frame_000196.jpg", "lat": 26.3905561, "lon": 80.3885296, "alt_agl": 1.034, "heading_deg": 127.66, "pitch": -2.5536378297121636, "roll": 0.9899573730178931}
{"frame_id": 197, "timestamp": 1767514247.7425795, "image": "frames/frame_000197.jpg", "lat": 26.3905565, "lon": 80.3885296, "alt_agl": 1.048, "heading_deg": 127.67, "pitch": -2.543801503533699, "roll": 1.0086092322590228}
{"frame_id": 198, "timestamp": 1767514248.7432206, "image": "frames/frame_000198.jpg", "lat": 26.3905567, "lon": 80.3885296, "alt_agl": 1.045, "heading_deg": 127.68, "pitch": -2.554322129289634, "roll": 1.0307829077909403}
{"frame_id": 199, "timestamp": 1767514249.7392166, "image": "frames/frame_000199.jpg", "lat": 26.3905569, "lon": 80.3885296, "alt_agl": 1.029, "heading_deg": 127.7, "pitch": -2.555523602253322, "roll": 1.0361214476792457}
{"frame_id": 200, "timestamp": 1767514250.7728996, "image": "frames/frame_000200.jpg", "lat": 26.3905568, "lon": 80.3885296, "alt_agl": 0.946, "heading_deg": 127.7, "pitch": -2.5784333373900137, "roll": 1.0574555435517805}
{"frame_id": 201, "timestamp": 1767514251.7453358, "image": "frames/frame_000201.jpg", "lat": 26.390557, "lon": 80.3885296, "alt_agl": 0.885, "heading_deg": 127.7, "pitch": -2.558394629582254, "roll": 1.0402444273387004}
{"frame_id": 202, "timestamp": 1767514252.743323, "image": "frames/frame_000202.jpg", "lat": 26.390557, "lon": 80.3885296, "alt_agl": 0.758, "heading_deg": 127.69, "pitch": -2.5597995141171612, "roll": 1.0426882476793897}
{"frame_id": 203, "timestamp": 1767514253.7441936, "image": "frames/frame_000203.jpg", "lat": 26.3905568, "lon": 80.3885296, "alt_agl": 0.865, "heading_deg": 127.7, "pitch": -2.552770822574395, "roll": 1.0485150393716454}
{"frame_id": 204, "timestamp": 1767514254.7449872, "image": "frames/frame_000204.jpg", "lat": 26.3905565, "lon": 80.3885294, "alt_agl": 0.791, "heading_deg": 127.7, "pitch": -2.535670590213622, "roll": 1.0541036282165968}
{"frame_id": 205, "timestamp": 1767514255.7443333, "image": "frames/frame_000205.jpg", "lat": 26.3905561, "lon": 80.3885294, "alt_agl": 0.786, "heading_deg": 127.71, "pitch": -2.5360951291592206, "roll": 1.0478921047749992}
{"frame_id": 206, "timestamp": 1767514256.779753, "image": "frames/frame_000206.jpg", "lat": 26.3905559, "lon": 80.3885293, "alt_agl": 0.747, "heading_deg": 127.71, "pitch": -2.5247719561758086, "roll": 1.0411852858968698}
{"frame_id": 207, "timestamp": 1767514257.7446055, "image": "frames/frame_000207.jpg", "lat": 26.3905558, "lon": 80.3885294, "alt_agl": 0.781, "heading_deg": 127.71, "pitch": -2.50769285471278, "roll": 1.0221582998599181}
{"frame_id": 208, "timestamp": 1767514258.7403274, "image": "frames/frame_000208.jpg", "lat": 26.3905556, "lon": 80.3885293, "alt_agl": 0.917, "heading_deg": 127.72, "pitch": -2.498765584024162, "roll": 1.0248909091364522}
{"frame_id": 209, "timestamp": 1767514259.746079, "image": "frames/frame_000209.jpg", "lat": 26.3905553, "lon": 80.3885293, "alt_agl": 0.943, "heading_deg": 127.72, "pitch": -2.508035431388339, "roll": 1.029565746736503}
{"frame_id": 210, "timestamp": 1767514260.7438962, "image": "frames/frame_000210.jpg", "lat": 26.3905549, "lon": 80.3885295, "alt_agl": 1.026, "heading_deg": 127.74, "pitch": -2.5086866472370173, "roll": 1.020687141145721}
{"frame_id": 211, "timestamp": 1767514261.745852, "image": "frames/frame_000211.jpg", "lat": 26.3905545, "lon": 80.3885297, "alt_agl": 0.932, "heading_deg": 127.74, "pitch": -2.5079588052035877, "roll": 1.0244252823341278}
{"frame_id": 212, "timestamp": 1767514262.787594, "image": "frames/frame_000212.jpg", "lat": 26.3905543, "lon": 80.3885299, "alt_agl": 0.892, "heading_deg": 127.74, "pitch": -2.4996744260705968, "roll": 1.0117742778873833}
{"frame_id": 213, "timestamp": 1767514263.7452235, "image": "frames/frame_000213.jpg", "lat": 26.3905541, "lon": 80.38853, "alt_agl": 0.901, "heading_deg": 127.75, "pitch": -2.496791232467205, "roll": 1.0157875476332947}
{"frame_id": 214, "timestamp": 1767514264.7422693, "image": "frames/frame_000214.jpg", "lat": 26.3905539, "lon": 80.38853, "alt_agl": 0.009, "heading_deg": 127.76, "pitch": -2.4820444271623248, "roll": 1.0252767081028522}
{"frame_id": 215, "timestamp": 1767514265.745812, "image": "frames/frame_000215.jpg", "lat": 26.3905537, "lon": 80.38853, "alt_agl": 0.06, "heading_deg": 127.74, "pitch": -2.4898240126269693, "roll": 1.0301865468990334}
{"frame_id": 216, "timestamp": 1767514266.7457833, "image": "frames/frame_000216.jpg", "lat": 26.3905533, "lon": 80.38853, "alt_agl": 0.184, "heading_deg": 127.74, "pitch": -2.498254813940292, "roll": 1.0347634139731767}
{"frame_id": 217, "timestamp": 1767514267.7466078, "image": "frames/frame_000217.jpg", "lat": 26.390553, "lon": 80.3885301, "alt_agl": 0.22, "heading_deg": 127.74, "pitch": -2.4988191583204644, "roll": 1.030723357079114}
{"frame_id": 218, "timestamp": 1767514268.7778795, "image": "frames/frame_000218.jpg", "lat": 26.3905528, "lon": 80.3885303, "alt_agl": 0.258, "heading_deg": 127.74, "pitch": -2.4930905505975276, "roll": 1.033189055369489}
{"frame_id": 219, "timestamp": 1767514269.7456653, "image": "frames/frame_000219.jpg", "lat": 26.3905525, "lon": 80.3885303, "alt_agl": 0.293, "heading_deg": 127.74, "pitch": -2.4838296678566367, "roll": 1.0268371928847886}
{"frame_id": 220, "timestamp": 1767514270.7460573, "image": "frames/frame_000220.jpg", "lat": 26.3905521, "lon": 80.3885304, "alt_agl": 0.379, "heading_deg": 127.74, "pitch": -2.494114865529618, "roll": 1.0377499141877649}
{"frame_id": 221, "timestamp": 1767514271.7455864, "image": "frames/frame_000221.jpg", "lat": 26.3905519, "lon": 80.3885306, "alt_agl": 0.44, "heading_deg": 127.75, "pitch": -2.4804333562918477, "roll": 1.0178998903558267}
{"frame_id": 222, "timestamp": 1767514272.7469854, "image": "frames/frame_000222.jpg", "lat": 26.390552, "lon": 80.3885308, "alt_agl": 0.404, "heading_deg": 127.75, "pitch": -2.453795191641975, "roll": 1.0088866019723488}
{"frame_id": 223, "timestamp": 1767514273.7454457, "image": "frames/frame_000223.jpg", "lat": 26.390552, "lon": 80.3885311, "alt_agl": 0.396, "heading_deg": 127.73, "pitch": -2.465000543862204, "roll": 1.0156265045792705}
{"frame_id": 224, "timestamp": 1767514274.792339, "image": "frames/frame_000224.jpg", "lat": 26.390552, "lon": 80.3885314, "alt_agl": 0.231, "heading_deg": 127.73, "pitch": -2.4563057130487778, "roll": 1.0253567493821882}
{"frame_id": 225, "timestamp": 1767514275.7466738, "image": "frames/frame_000225.jpg", "lat": 26.390552, "lon": 80.3885317, "alt_agl": 0.265, "heading_deg": 127.71, "pitch": -2.4888007649119364, "roll": 1.0680595189599311}
{"frame_id": 226, "timestamp": 1767514276.747214, "image": "frames/frame_000226.jpg", "lat": 26.3905521, "lon": 80.3885322, "alt_agl": -0.062, "heading_deg": 127.68, "pitch": -2.4587688500182137, "roll": 1.0674025401391405}
{"frame_id": 227, "timestamp": 1767514277.746953, "image": "frames/frame_000227.jpg", "lat": 26.3905521, "lon": 80.3885328, "alt_agl": -0.227, "heading_deg": 127.67, "pitch": -2.4683390122624593, "roll": 1.0769490101647028}
{"frame_id": 228, "timestamp": 1767514278.7472897, "image": "frames/frame_000228.jpg", "lat": 26.3905522, "lon": 80.3885335, "alt_agl": -0.368, "heading_deg": 127.68, "pitch": -2.5016703354121215, "roll": 1.0976276213203278}
{"frame_id": 229, "timestamp": 1767514279.7469556, "image": "frames/frame_000229.jpg", "lat": 26.3905528, "lon": 80.3885344, "alt_agl": -0.266, "heading_deg": 127.69, "pitch": -2.4159576511873966, "roll": 1.0404568035332056}
{"frame_id": 230, "timestamp": 1767514280.7838798, "image": "frames/frame_000230.jpg", "lat": 26.3905533, "lon": 80.388535, "alt_agl": 0.067, "heading_deg": 127.61, "pitch": -2.4689712316475085, "roll": 1.0480795080903513}
{"frame_id": 231, "timestamp": 1767514281.7482116, "image": "frames/frame_000231.jpg", "lat": 26.3905539, "lon": 80.3885356, "alt_agl": 0.205, "heading_deg": 127.61, "pitch": -2.472109917014541, "roll": 1.0370375468016737}
{"frame_id": 232, "timestamp": 1767514282.748452, "image": "frames/frame_000232.jpg", "lat": 26.3905548, "lon": 80.3885361, "alt_agl": 0.07, "heading_deg": 127.59, "pitch": -2.466809690218611, "roll": 1.0340279946986368}
{"frame_id": 233, "timestamp": 1767514283.7498922, "image": "frames/frame_000233.jpg", "lat": 26.3905561, "lon": 80.3885369, "alt_agl": 0.072, "heading_deg": 127.56, "pitch": -2.459506937335398, "roll": 1.030473841730997}
{"frame_id": 234, "timestamp": 1767514284.7475498, "image": "frames/frame_000234.jpg", "lat": 26.3905572, "lon": 80.3885376, "alt_agl": 0.236, "heading_deg": 127.56, "pitch": -2.468291841268504, "roll": 1.0583849828874312}
{"frame_id": 235, "timestamp": 1767514285.7486646, "image": "frames/frame_000235.jpg", "lat": 26.3905584, "lon": 80.3885382, "alt_agl": 0.476, "heading_deg": 127.54, "pitch": -2.460507986935628, "roll": 1.0851565496695308}
{"frame_id": 236, "timestamp": 1767514286.780353, "image": "frames/frame_000236.jpg", "lat": 26.3905591, "lon": 80.3885386, "alt_agl": 0.416, "heading_deg": 127.51, "pitch": -2.4762500788686266, "roll": 1.1028606134416155}
{"frame_id": 237, "timestamp": 1767514287.7487648, "image": "frames/frame_000237.jpg", "lat": 26.3905598, "lon": 80.3885389, "alt_agl": 0.445, "heading_deg": 127.48, "pitch": -2.4731673156754237, "roll": 1.1220297527906677}
{"frame_id": 238, "timestamp": 1767514288.7449617, "image": "frames/frame_000238.jpg", "lat": 26.3905601, "lon": 80.3885392, "alt_agl": 0.445, "heading_deg": 127.49, "pitch": -2.4909106530352356, "roll": 1.126324874561548}
{"frame_id": 239, "timestamp": 1767514289.7478888, "image": "frames/frame_000239.jpg", "lat": 26.3905602, "lon": 80.3885392, "alt_agl": 0.267, "heading_deg": 127.48, "pitch": -2.494484549518445, "roll": 1.1439216830193222}
{"frame_id": 240, "timestamp": 1767514290.7485604, "image": "frames/frame_000240.jpg", "lat": 26.3905601, "lon": 80.3885391, "alt_agl": 0.042, "heading_deg": 127.47, "pitch": -2.5064416494341986, "roll": 1.1391801443531582}
{"frame_id": 241, "timestamp": 1767514291.7495432, "image": "frames/frame_000241.jpg", "lat": 26.3905598, "lon": 80.3885388, "alt_agl": 0.056, "heading_deg": 127.47, "pitch": -2.5020784392150297, "roll": 1.1339569706288026}
{"frame_id": 242, "timestamp": 1767514292.7931037, "image": "frames/frame_000242.jpg", "lat": 26.3905594, "lon": 80.3885384, "alt_agl": -0.025, "heading_deg": 127.52, "pitch": -2.5000797551091547, "roll": 1.0997670713561285}
{"frame_id": 243, "timestamp": 1767514293.7466106, "image": "frames/frame_000243.jpg", "lat": 26.3905589, "lon": 80.3885382, "alt_agl": -0.009, "heading_deg": 127.49, "pitch": -2.5189912682604505, "roll": 1.1184879795408988}
{"frame_id": 244, "timestamp": 1767514294.7492366, "image": "frames/frame_000244.jpg", "lat": 26.3905587, "lon": 80.3885383, "alt_agl": 0.084, "heading_deg": 127.55, "pitch": -2.490061361700627, "roll": 1.1190799648428684}
{"frame_id": 245, "timestamp": 1767514295.7448971, "image": "frames/frame_000245.jpg", "lat": 26.3905582, "lon": 80.3885383, "alt_agl": 0.169, "heading_deg": 127.59, "pitch": -2.4954907217605524, "roll": 1.125300879794575}
{"frame_id": 246, "timestamp": 1767514296.7496386, "image": "frames/frame_000246.jpg", "lat": 26.390558, "lon": 80.3885382, "alt_agl": 0.194, "heading_deg": 127.59, "pitch": -2.5324956194666237, "roll": 1.1088927376957944}
{"frame_id": 247, "timestamp": 1767514297.74611, "image": "frames/frame_000247.jpg", "lat": 26.390558, "lon": 80.3885381, "alt_agl": 0.269, "heading_deg": 127.62, "pitch": -2.5233384702237522, "roll": 1.1490542500154695}
{"frame_id": 248, "timestamp": 1767514298.7834613, "image": "frames/frame_000248.jpg", "lat": 26.390558, "lon": 80.3885382, "alt_agl": 0.32, "heading_deg": 127.63, "pitch": -2.5045127613239044, "roll": 1.1108826706217954}
{"frame_id": 249, "timestamp": 1767514299.7476616, "image": "frames/frame_000249.jpg", "lat": 26.3905585, "lon": 80.3885382, "alt_agl": 0.373, "heading_deg": 127.64, "pitch": -2.4915388169954653, "roll": 1.0421180336053995}
{"frame_id": 250, "timestamp": 1767514300.747231, "image": "frames/frame_000250.jpg", "lat": 26.3905588, "lon": 80.3885382, "alt_agl": 0.273, "heading_deg": 127.6, "pitch": -2.474908587026954, "roll": 1.0911079923141391}
{"frame_id": 251, "timestamp": 1767514301.747366, "image": "frames/frame_000251.jpg", "lat": 26.3905591, "lon": 80.3885384, "alt_agl": 0.112, "heading_deg": 127.63, "pitch": -2.518315933306266, "roll": 1.1358555497746545}
{"frame_id": 252, "timestamp": 1767514302.750214, "image": "frames/frame_000252.jpg", "lat": 26.3905594, "lon": 80.3885384, "alt_agl": -0.006, "heading_deg": 127.61, "pitch": -2.4911144914932786, "roll": 1.1587673126237565}
{"frame_id": 253, "timestamp": 1767514303.7496433, "image": "frames/frame_000253.jpg", "lat": 26.39056, "lon": 80.3885386, "alt_agl": -0.109, "heading_deg": 127.57, "pitch": -2.4906940079724995, "roll": 1.1514870780204634}
{"frame_id": 254, "timestamp": 1767514304.7888665, "image": "frames/frame_000254.jpg", "lat": 26.3905602, "lon": 80.3885387, "alt_agl": -0.127, "heading_deg": 127.56, "pitch": -2.492072212080961, "roll": 1.1706233470841352}
{"frame_id": 255, "timestamp": 1767514305.7467632, "image": "frames/frame_000255.jpg", "lat": 26.3905605, "lon": 80.3885387, "alt_agl": 0.085, "heading_deg": 127.55, "pitch": -2.4975143787455805, "roll": 1.1628456826101947}
{"frame_id": 256, "timestamp": 1767514306.7492537, "image": "frames/frame_000256.jpg", "lat": 26.3905608, "lon": 80.3885389, "alt_agl": 0.101, "heading_deg": 127.54, "pitch": -2.509820031752416, "roll": 1.1526941005128517}
{"frame_id": 257, "timestamp": 1767514307.7473106, "image": "frames/frame_000257.jpg", "lat": 26.390561, "lon": 80.3885389, "alt_agl": 0.028, "heading_deg": 127.53, "pitch": -2.5249702451051506, "roll": 1.1698783228560747}
{"frame_id": 258, "timestamp": 1767514308.7520058, "image": "frames/frame_000258.jpg", "lat": 26.3905609, "lon": 80.3885389, "alt_agl": 0.126, "heading_deg": 127.51, "pitch": -2.5317423776672183, "roll": 1.1699913411424974}
{"frame_id": 259, "timestamp": 1767514309.746481, "image": "frames/frame_000259.jpg", "lat": 26.3905612, "lon": 80.3885389, "alt_agl": 0.033, "heading_deg": 127.52, "pitch": -2.524175595283902, "roll": 1.1589230195924916}
{"frame_id": 260, "timestamp": 1767514310.788068, "image": "frames/frame_000260.jpg", "lat": 26.3905614, "lon": 80.3885392, "alt_agl": 0.064, "heading_deg": 127.51, "pitch": -2.520565413420727, "roll": 1.164727506448239}
{"frame_id": 261, "timestamp": 1767514311.750193, "image": "frames/frame_000261.jpg", "lat": 26.3905617, "lon": 80.3885395, "alt_agl": 0.178, "heading_deg": 127.5, "pitch": -2.5262212369403207, "roll": 1.1543578919059845}
{"frame_id": 262, "timestamp": 1767514312.748194, "image": "frames/frame_000262.jpg", "lat": 26.3905622, "lon": 80.3885396, "alt_agl": 0.047, "heading_deg": 127.5, "pitch": -2.4981154353925414, "roll": 1.1357110485850264}
{"frame_id": 263, "timestamp": 1767514313.7484047, "image": "frames/frame_000263.jpg", "lat": 26.3905624, "lon": 80.3885396, "alt_agl": -0.043, "heading_deg": 127.49, "pitch": -2.5054126387470537, "roll": 1.159524503126276}
{"frame_id": 264, "timestamp": 1767514314.7506917, "image": "frames/frame_000264.jpg", "lat": 26.3905625, "lon": 80.3885396, "alt_agl": -0.042, "heading_deg": 127.49, "pitch": -2.5051769972206883, "roll": 1.1614153983093116}
{"frame_id": 265, "timestamp": 1767514315.7488914, "image": "frames/frame_000265.jpg", "lat": 26.3905626, "lon": 80.3885397, "alt_agl": -0.052, "heading_deg": 127.43, "pitch": -2.4925964290997595, "roll": 1.1410819251501836}
{"frame_id": 266, "timestamp": 1767514316.786058, "image": "frames/frame_000266.jpg", "lat": 26.3905625, "lon": 80.3885398, "alt_agl": -0.065, "heading_deg": 127.62, "pitch": -2.5292190496557216, "roll": 1.1875235829682738}
{"frame_id": 267, "timestamp": 1767514317.7488186, "image": "frames/frame_000267.jpg", "lat": 26.3905624, "lon": 80.38854, "alt_agl": -0.017, "heading_deg": 127.56, "pitch": -2.5417643996137427, "roll": 1.169689745601959}
{"frame_id": 268, "timestamp": 1767514318.750346, "image": "frames/frame_000268.jpg", "lat": 26.390562, "lon": 80.38854, "alt_agl": 0.014, "heading_deg": 127.62, "pitch": -2.541210087073914, "roll": 1.1842903421699191}
{"frame_id": 269, "timestamp": 1767514319.7486432, "image": "frames/frame_000269.jpg", "lat": 26.3905615, "lon": 80.38854, "alt_agl": 0.058, "heading_deg": 127.56, "pitch": -2.5314087656149455, "roll": 1.1531818187082727}
